GPSTime,easting,northing,altitude,vel_east,vel_north,vel_up,roll,pitch,heading,angvel_z,angvel_y,angvel_x
1611678138585783,-3.2616350610699136,0.1990404497555929,-0.21025934422051248,-0.0009976882174574494,0.0008358436391897501,-0.004388762805437871,1.5370225166628242,-1.3150282594132132,0.016000089491829017,0.0004180694963555002,-0.001222250554897149,-0.008372849967341656
1611678138685783,-3.261638239143486,0.1990315750050187,-0.21029413427244747,-0.00024726850454156866,0.000814874288152686,0.0019519016714056809,1.5372258309187823,-1.3150416924107937,0.015803619079192713,-0.00099019401999905,-0.001625869934388355,0.002735126136699907
1611678138785783,-3.261632749569449,0.19904935237002624,-0.21023596755634394,0.000719962769432417,-0.0007987872014673099,0.0032711253963961496,1.5368599099528637,-1.3150213677084102,0.01610591279022656,0.0016339703840161013,0.0012434344137274064,0.00565156765656887
1611678138885784,-3.261630294142466,0.19903941254599017,-0.21023397095233615,-0.0005488251211780866,0.00036741683039731,-0.0038221890264977256,1.5368592346675585,-1.3150341286442742,0.016132550129437765,0.0013319332951899508,-0.0003978380948160092,-0.0069895049157878706
1611678138985784,-3.26164081163279,0.1990428086431056,-0.21029630422093243,1.5282519116557524e-05,-0.001024670500929151,0.00028560791353208007,1.5372370661085535,-1.3150339545506213,0.01573018600419543,-0.0037751730792247007,0.0011603741240074122,-0.0005760276643141159
1611678139085784,-3.2616292281808312,0.19902926482432087,-0.21024456423181168,0.0005729822943422888,0.0003912274063921444,0.003438771420182048,1.5369109105589314,-1.3150501256930338,0.016083433105538725,0.001988674241247466,-0.00044339326773714386,0.006168831133296487
1611678139185785,-3.261632239479528,0.19904116417048717,-0.21024320684156672,-0.0005849309557150136,0.0006330786574768785,-0.0032877421868210467,1.5369168352825366,-1.315029795727576,0.0160866021092118,0.0006884480338362966,-0.0009290902670999366,-0.0059317443975095505
1611678139285785,-3.2616368216642284,0.19902213510349648,-0.21029717687772642,-0.0002806076484086669,-0.0005022118547318285,-0.0002641065475112024,1.5372455893780839,-1.3150586791485297,0.015768811966821256,0.0001868520596662033,0.0004497166442028958,-0.0012369625073020544
1611678139385785,-3.2616289415413053,0.1990287240172661,-0.21024268449333838,0.0008997456796747561,-0.0010797210199941507,0.0038038309180996044,1.5368977269026893,-1.3150515359830974,0.016090423594229526,-0.00397318229313411,0.0007973908855143166,0.006552343285827225
1611678139485786,-3.261627319469676,0.19902334739953542,-0.21023837721799182,-0.0003394753989075963,0.000270690829583141,-0.0023976063992988046,1.5368782897676376,-1.315063839776864,0.016093152365596598,0.0021073530495270775,1.661469818575381e-05,-0.004541200004504848
1611678139585786,-3.261631117915488,0.19900847174058867,-0.2102839292627815,-8.916280286044025e-05,0.00012192785473407615,0.000354279441985945,1.5371545736322592,-1.3150853279040822,0.015832107058541402,-0.0005223820684916235,-0.00044322737058633525,-0.0001736973430400224
1611678139685786,-3.2616233637872174,0.19900291343650361,-0.2102479740271452,0.0009328515963547933,-0.000331802758586646,0.003390101187090468,1.5369253094751225,-1.3150914518773549,0.016075441623587396,-0.002262357361249572,-8.384913879260203e-05,0.006011627167680598
1611678139785787,-3.261620340656993,0.1989876428687569,-0.21024406319756297,-0.00033052299013185105,1.8667883244024258e-05,-0.0022569353587022028,1.5369077292434041,-1.3151205308082063,0.01606958940856916,0.0007790697186339937,0.00020310052204948757,-0.004434357308452714
1611678139885787,-3.2616312142791193,0.19900099573956626,-0.21029577820820033,1.1418517414588063e-07,-0.00113610620316491,-0.0008713240186177088,1.537223924287975,-1.315098252360925,0.015758575163753827,-0.003370717450292765,0.0010126934221605204,-0.0017999880025471877
1611678139985787,-3.2616170083816125,0.19897887271980022,-0.21023776493280893,0.0005683481437156233,0.00017507366947833037,0.003805684727841945,1.5368557727391456,-1.3151316747772965,0.016129944503039256,0.0014405033416956883,-0.0005881291322963048,0.006742692440124388
1611678140085789,-3.261615407799654,0.1989803194539097,-0.21022269453643824,-0.0002978815502669398,-5.861645174920138e-05,-0.0028929791783574486,1.5367694181378653,-1.3151306340534576,0.01621415105601291,-4.9060244987730705e-05,-2.9201153225034908e-05,-0.004950865945082658
1611678140185789,-3.2616245470608805,0.19898319538977993,-0.2102748140830009,-0.0007149170514014375,0.00048635818941458715,-0.0018624056112730178,1.5370884744958524,-1.3151273714330372,0.015888459854123536,-0.0007751353271145621,-0.0011466586454844385,-0.0035840791375803672
1611678140285789,-3.26162351812299,0.19898531349989462,-0.21026927763397035,0.0006000079495352186,-0.0005408243102832921,0.004283571148662943,1.5370496543886127,-1.3151212252334863,0.015941593559563406,-0.0018662645610106206,0.00013017584768367828,0.007472708216369864
1611678140385790,-3.261615848363327,0.19898893526317366,-0.21021618323017982,0.00022513413145343442,-0.00014232703453932703,-0.0004328694436050404,1.536730636427221,-1.3151120335422775,0.016282420204171658,-0.00014535521774186618,0.00021422250746848834,-0.00027574602858515383
1611678140485790,-3.2616256837761464,0.1989851617471358,-0.210280372914955,-0.0007575047727467384,0.0002464099126773403,-0.0028129442600674432,1.537139300725747,-1.315114695223696,0.015898967891617263,0.0027915814571149626,-0.0002458561178176546,-0.005432969038343117
1611678140585790,-3.2616250511246867,0.19898282615936372,-0.21028002201718804,0.0003036296122080373,-0.00023589981561852254,0.004478935388337152,1.5371218534883455,-1.3151188264786091,0.015911142277127668,-0.002053913821786156,-0.00038153803214673217,0.007759018225052578
1611678140685791,-3.2616149064360562,0.19898147973839653,-0.2102207509549589,9.78686212343321e-05,-0.00013218884096115303,-0.0006518089900960399,1.5367538573585835,-1.3151269809532358,0.01623830197257694,0.0006780323779601549,9.542316719048595e-05,-0.000588358088660724
1611678140785791,-3.2616256117314455,0.19898866043338737,-0.21027632489538717,-0.0007332015220829091,0.0001249222566478221,-0.0038712286412097337,1.5371010034219843,-1.3151206314123955,0.015860842815661462,0.002831974203892049,-0.00011158643568784373,-0.0068616096936155255
1611678140885791,-3.261624660977222,0.1989869589670643,-0.2102768334436902,0.0004445103430912516,-0.0003429865754549128,0.0028026865896388733,1.5370960675829353,-1.3151208346529475,0.015883688721642808,-0.0015702904167016062,-7.115060308817831e-06,0.004817249402270511
1611678140985792,-3.2616208088940652,0.1989921171406619,-0.21024614939895409,0.0003608715018440081,0.0001290370290351342,0.0006468347784475225,1.5369089188625313,-1.315115566248739,0.0160538477025837,-0.0019452545156759332,-0.0004131587265670625,0.0015155019291478687
1611678141085792,-3.2616288255992703,0.19899987276693004,-0.2102797126419294,-0.0007573210122543575,0.00020371547706468215,-0.0036515309314822447,1.537124900181459,-1.3151026422789938,0.015842238714787602,0.0026294329808066357,0.00010921755683311249,-0.006351564140729562
1611678141185792,-3.261631989021373,0.1990121911677803,-0.21028362801157316,0.00025518344714202195,-0.0007520502376237257,0.002260057505348953,1.537147549518968,-1.3150777649484942,0.015845493182574152,0.0013740879829664838,0.0010173029791463257,0.0036266084750279162
1611678141285793,-3.26162199660808,0.1990106036470313,-0.2102234150712624,0.0003000808648485274,0.0009523166654830606,0.002636877913646,1.5367702959276344,-1.3150843040006446,0.01619505334729737,-0.0016416903290999516,-0.0018418360915705698,0.00490286672509982
1611678141385793,-3.2616255123835627,0.1990150886356022,-0.21023711395573597,-0.0005628183163114639,-0.00044771713993336555,-0.004527782185294918,1.536864069288445,-1.3150785116237644,0.01609596857838399,0.0007669806717886793,0.0009154464580873575,-0.007770145202122646
1611678141485793,-3.261635915944975,0.1990239391801953,-0.2102914239321954,-0.00022576482434937402,0.00015170801727591366,0.0008843428473001684,1.5371943882326855,-1.3150653860010986,0.015758198891981094,0.0016178314426805443,-0.00035029186991847983,0.0012205442944761076
1611678141585794,-3.2616276635581234,0.19903260025416136,-0.21023067087199698,0.0006851094421173039,5.907818058492086e-08,0.0026185724616633508,1.5368189050519407,-1.31504853803795,0.01614629027938212,0.00273008458487419,0.0001606539193964519,0.005002885936075002
1611678141685794,-3.2616322576088206,0.19903216434539395,-0.21025482909457616,-0.0008552385508701217,0.0007676172891285481,-0.0032462454612795888,1.5369807727838731,-1.3150485607681142,0.015994694286019365,0.0005348217954836633,-0.0013369181087297534,-0.005947248148943351
1611678141785794,-3.2616352676035487,0.19902265965300914,-0.21029001993222776,0.00029069979399367913,0.00030222725226704706,0.0036775429021094655,1.537181968116914,-1.3150688056681834,0.01576130640671906,-0.0016341582208011945,-0.0010033435313282367,0.005909423235083935
1611678141885795,-3.2616283895057165,0.19903909367236464,-0.21022308033406994,0.0005418988545358636,-0.0006854632013282791,0.0020310518029343764,1.5367747269516276,-1.3150396073750832,0.016183480632970888,0.0014049752922427128,0.0013665656729006655,0.003856674856844835
1611678141985795,-3.2616381438663318,0.19904720978687868,-0.2102714783639072,-0.0004955168656572706,-0.0007588096722302806,-0.0032807453658770585,1.5370842799427527,-1.315026137532415,0.015880755013548464,0.0014962222973816518,0.0013125054447805755,-0.005906482041433757
1611678142085795,-3.2616358319849614,0.1990371627371145,-0.21027237705558316,0.00036726939861874845,-0.0003857206711584673,0.0035840057909902207,1.5370848884483088,-1.3150386812230581,0.015904296953679238,-0.0015850612973531699,0.00018433052035642537,0.0057563052873541715
1611678142185796,-3.261629123965857,0.19904131438295308,-0.21022515769797284,0.00021010392066878874,0.00010227428407265672,0.0001347132251650999,1.5368028165078484,-1.3150298915241805,0.01620374070656264,-0.002676438555606682,-0.00013843666327111975,-7.326722225407123e-05
1611678142285796,-3.2616376669312714,0.19903669330829116,-0.2102835010963228,-0.0007329868242905849,0.00021919116165891207,-0.003946995871073777,1.5371631699743655,-1.315041048629415,0.015823658301779335,0.002010890968104791,0.00016767682757142609,-0.0071340630786024
1611678142385796,-3.261636625481311,0.19904348220155416,-0.2102698216165933,0.00018605840145492316,0.00045992488885147805,0.0032125253669599493,1.5370761309369763,-1.3150239475742298,0.015946935714317535,-0.001327083287020267,-0.0008513043137809108,0.004842174279491898
1611678142485797,-3.26162968747475,0.19903978212804108,-0.21023181317218073,0.00018707343397500085,0.00048456988579051035,0.0008445015045923714,1.5368475076693418,-1.3150278208113417,0.01618835910183518,-0.00019927369231697393,-0.0005006128738752351,0.0012735519523533526
1611678142585797,-3.2616342096471587,0.19902995820314415,-0.2102697241037576,-0.0005817204716690363,-0.0007224396554697838,-0.0036948511026670713,1.537081641343962,-1.3150469037173265,0.015929644362328833,0.0004424508390674393,0.0012050214588133733,-0.006839736923276788
1611678142685797,-3.2616371638219492,0.19903342254880657,-0.21028711320434068,0.00033723660282422997,-0.0006377372808748164,0.002630894011209138,1.5371740540932062,-1.3150471663241243,0.015800636965180966,-0.001892344969548552,0.0005707869431195827,0.003883796447889812
1611678142785798,-3.2616286022383014,0.19902523853367046,-0.21024721627810378,0.00018033680198997786,0.0016663397463586723,0.0024044937176387654,1.5369217234832593,-1.3150646207766459,0.01602554812005106,0.002085220451038039,-0.002355237931057572,0.0043913666808523
1611678142885798,-3.2616314999702674,0.19903326420408038,-0.2102506882960037,-0.0004799018204221319,7.594055083676096e-05,-0.003648211431596285,1.5369632831000217,-1.3150458575458301,0.016026511120497702,0.001087533561823122,0.00046778484578487714,-0.006886934968871968
1611678142985798,-3.2616420259182544,0.19903202035222206,-0.21031850241240482,-0.0005855252723287016,0.0022456793249099,0.0016446026794304713,1.5373732293885618,-1.3150503077877636,0.015601905853435714,0.0005235918774918172,-0.0035640909656723995,0.0017631722077763679
1611678143085799,-3.2616300085669816,0.1990243680999922,-0.21025574904405708,0.0006337366315888502,-0.00016505551544212987,0.0036178027867112346,1.5369782163660715,-1.315063600839275,0.015989434479289584,0.0011330020232919477,0.000525446799471036,0.006213467274090379
1611678143185799,-3.2616242607448442,0.19901108284233626,-0.21023316696793498,-0.0004492719326721823,-7.811399775045612e-05,-0.002684460022880329,1.5368514909378648,-1.3150826222727614,0.01613818796721772,-0.0004772976390613963,0.0006242775284063892,-0.0054973175297118445
1611678143285799,-3.2616362301434454,0.19901835946304608,-0.21029930863263652,-0.00015269702101898086,9.051670476577905e-06,0.0011795090863237756,1.5372585110742787,-1.3150684229490655,0.01574975607034961,0.0007334646152795786,0.0005497862394626722,0.0010640234229226584
1611678143385800,-3.261627332667546,0.19902335017730488,-0.21024083841147756,0.0007367423940371955,-0.00036315562351051187,0.003043296770705721,1.536889100329675,-1.3150613434114329,0.016105958073861372,-0.0014731640880882955,0.0007474633159743716,0.005242350085694197
1611678143485800,-3.261627276791979,0.19901510440316383,-0.21024736829975726,-0.000755400263713426,0.0005571167396265431,-0.003492394000309085,1.5369367285551385,-1.3150785119077069,0.01603886069828221,0.0033242510738304945,0.00023431424679653184,-0.0065028175991346075
1611678143585800,-3.261632523334363,0.19901328762507373,-0.21028400170466627,0.00021813120225251925,-0.00022923210082961056,0.0030393065318148477,1.5371565969864847,-1.3150786070740028,0.015834456329652337,-0.0012152867129431525,0.00046357867551397676,0.0044339030688716795
1611678143685800,-3.2616221752229126,0.1990067336152636,-0.21022941044207105,-7.271614622730092e-05,0.0013950332545721639,0.0006247074284171536,1.536820973960803,-1.3150879002883236,0.01618114031549338,-0.0007542783319260638,-0.00161946164367689,0.000809272398290121
1611678143785801,-3.261635421487592,0.1990229719704334,-0.21028833101413535,-0.000718387551965063,0.0005171631674948289,-0.0024014018922437013,1.5371897979074738,-1.3150665482915695,0.015782748774026512,0.00022196052684792246,-0.0003084584678398747,-0.004895745290420353
1611678143885801,-3.2616315974667653,0.1990217107429014,-0.2102715370202401,0.0006136311223917564,-0.00032552269195595295,0.003126556421208456,1.5370757894921807,-1.3150683511553551,0.01589327902070954,-0.0035198030465863417,0.00014626477257299823,0.0050744188996435565
1611678143985802,-3.2616273954979196,0.19902020773739465,-0.21024169868303333,-0.0005729271856339862,0.0014930325815486934,-0.0018597073532408378,1.5368993811018048,-1.3150711384576448,0.016069370214817864,0.002532030428222612,-0.001528346888736413,-0.003393390370603422
1611678144085802,-3.261637024269547,0.19902787767500635,-0.21028870121362958,-0.00042494458691812463,-0.0008425756075238896,-0.002235559070659736,1.537191635739939,-1.3150562016442333,0.015800460247002976,-0.0009256427797092466,0.0019288672118770618,-0.0044486498580193585
1611678144185802,-3.2616358799420637,0.199034826777859,-0.21027547525359763,0.00016237579292598467,0.0012232605052032589,0.004339882908287591,1.537097716357707,-1.3150487169096188,0.01586383305597372,-0.0021528054245227835,-0.0019866201719293077,0.007137181728417121
1611678144285802,-3.261626922235566,0.19903453426738932,-0.21022089397124616,0.0003665767781549191,-0.0002145279656410993,0.0007411181880294819,1.5367725862400705,-1.315043623802809,0.01622424903871411,-0.001713382929758796,0.0007572792988586044,0.0013389180842853343
1611678144385803,-3.261634455858936,0.199039944478472,-0.2102577684841349,-0.0010914342513250305,0.0010088926794583337,-0.0048874711942993015,1.5370078293403135,-1.3150374608942814,0.015978958288940238,-0.0007705652355434623,-0.0010739748885973703,-0.00912226398721467
1611678144485803,-3.261633399191463,0.19901414319098196,-0.2102890523903859,3.2798552477758624e-05,-1.0681680468283172e-06,0.002619330682728608,1.5371926883159557,-1.3150707580377414,0.015844952919571147,-0.002307076322677165,0.00011394757838853056,0.003772952574710544
1611678144585803,-3.2616259477936094,0.1990260746275121,-0.21022986711352995,0.0009435212349182875,-0.0006781012739425542,0.002860905368988085,1.5368249518172932,-1.3150543117973046,0.016189968781108673,-0.00040701763688653225,0.0016867908303272476,0.004855773095620249
1611678144685804,-3.261631121700821,0.1990352654252299,-0.2102436093682552,-0.0010304354355575966,0.00153754512628025,-0.004223615320603613,1.5369183255012808,-1.3150436159706054,0.016068922086790418,0.004446945581812974,-0.0015227310420259904,-0.007477462791284263
1611678144785804,-3.261642020461353,0.19903653184845954,-0.21030963829023658,-6.98004176544445e-05,-0.0005194393432716924,0.0009748223749143328,1.5373200438024885,-1.3150425616079173,0.015664747644047836,0.0015450527938570828,0.0013741498365764397,0.0009512928672663289
1611678144885804,-3.2616284406752794,0.19903122612048513,-0.21023631926379605,0.0005572922236139618,0.0005967560127083752,0.003735787986567526,1.5368600899295286,-1.3150505784154942,0.016125970797312893,-0.004424853953337709,-0.001156860122751217,0.006257419620223808
1611678144985805,-3.261629984512433,0.1990338933333752,-0.2102394157943736,-0.0005573982658811926,-0.00013885148171082352,-0.0037773286423857084,1.5368873652779935,-1.3150512688655018,0.01606673503297646,0.0004985111207202014,0.0008058361861603884,-0.00691364529950518
1611678145085805,-3.261634199270723,0.19901181981934424,-0.21029712866149342,-2.0824486570610394e-05,4.653769076712955e-05,0.0014839120187179755,1.5372324213681832,-1.3150868911150178,0.015723129437254412,-0.001763463533522439,-3.762578896007876e-05,0.0016920931105811998
1611678145185805,-3.2616312260167204,0.1990399649733172,-0.21024218699456174,0.0005157638835064008,0.0007484792674315021,0.003026307198309835,1.5368960371783453,-1.3150379429267183,0.016076894945194705,-0.0015255541128564884,-0.001161357820126894,0.0051193943676394954
1611678145285806,-3.261630285380797,0.1990284421965561,-0.2102473938013837,-0.0006745481709353885,0.0001609078477463477,-0.0038956969047824566,1.5369324201603647,-1.3150622589562175,0.016009425675558044,-0.00011188836591476481,0.00031852011429523504,-0.007034935953946774
1611678145385806,-3.2616365497280695,0.1990208414071461,-0.2102994041912577,-0.00014129478941194746,0.00032200551811098043,0.001058164327588468,1.5372441946103934,-1.315076634645445,0.01568568315934568,-0.0025974107128483837,-0.0006027770279224685,0.0011392472666985076
1611678145485806,-3.2616261629154177,0.19901245187086425,-0.2102481634291132,0.00016571389806113585,0.0009985830389673842,0.0019728007061397697,1.5369240006442422,-1.315086734944928,0.016023239553906995,0.003510296764007248,-0.0007402347096747946,0.0036208523776328117
1611678145585807,-3.261627073492622,0.1990055585481518,-0.21025899541299964,-0.0008282618757321753,0.0007696608170733595,-0.0029772834474390353,1.5370016799855062,-1.315096571957115,0.015955884134036837,0.0007913886503596085,-0.0007195811304468715,-0.0057030970116019545
1611678145685807,-3.261632232103307,0.19901017177177707,-0.2102908864048972,0.0001559567474744187,0.000745948243844732,0.0028265859221596307,1.5371902984448638,-1.3150886960034223,0.01577098989010434,-0.0016265492238883668,-0.0012522095417516383,0.004276338680605847
1611678145785807,-3.261622193168961,0.19900553832269682,-0.21023359179329804,0.00025822028494353093,0.0008742752187957407,0.0017886013625820927,1.5368326883103327,-1.315098095458168,0.016116477409443795,-0.001308014294134769,-0.0009705509691099667,0.003302797575617318
1611678145885808,-3.2616228641078386,0.19899188820182923,-0.21025336754123475,-0.0011484703946540822,0.001459352633512915,-0.004625059204481137,1.5369558760468331,-1.315125559985762,0.01595289924432845,0.0010624702017047736,-0.0018411170569446744,-0.008286434754856048
1611678145985808,-3.2616268713130085,0.1989842053803338,-0.21029236285030722,7.853908025130198e-05,0.0012706776628347253,0.0038112065998665914,1.537187505761649,-1.3151377695758646,0.01572362455478676,0.0008450456066931449,-0.001804248173418144,0.005764625066276572
1611678146085809,-3.2616170762360355,0.1989923481454474,-0.21021950366669767,0.00043351671144175805,0.00010899377387928953,0.0014523322599475637,1.5367347285723596,-1.3151271318888142,0.016159275236010556,0.001175606981390191,0.00044115617484791653,0.00274998704367553
1611678146185810,-3.2616271762443456,0.1990113835883311,-0.210247525459268,-0.0009199668737223932,0.0005440510855399982,-0.003858046010217564,1.5369285684791827,-1.3150906299744052,0.016009000577603183,-0.001925432887693648,-0.0004451058243661409,-0.00714596524950803
1611678146285810,-3.261632388805873,0.199015894367746,-0.2102746575331279,-0.00010205499244477259,-8.554266855744657e-05,0.0021509317513436943,1.5370901345795027,-1.3150788455588993,0.01587044902301445,0.0004746697240257984,0.00045422813673853666,0.003266568129384279
1611678146385810,-3.261619091609634,0.19900286360104041,-0.2102159422966195,0.0005166362132624404,-0.00011244554497539822,0.0028087697751229316,1.5367334547159623,-1.3150903203964839,0.016279846121522723,-1.8948048713521263e-05,0.00031641791642385536,0.004827146552224196
1611678146485811,-3.2616277173211743,0.19902285869375216,-0.21024103145478967,-0.0005437292143128891,0.00034397995435657484,-0.003206530828535324,1.5369044102978398,-1.31505967682974,0.016106351257582578,0.0012125315428891024,4.4263228235444324e-05,-0.0059400931832469025
1611678146585811,-3.261640394424677,0.19904034406355475,-0.21029766441182188,0.0004085466883095023,-0.001082054510483018,0.00224981852855821,1.5372392837654236,-1.3150427449803743,0.015703492728256222,-0.0016754384734292195,0.0017923278282457834,0.0030127277880102315
1611678146685811,-3.261626694893138,0.19901999450754798,-0.21024763632264276,0.0009446058787447478,-0.0004616415352110693,0.003127938355761259,1.5369273001518844,-1.315067575307574,0.016061163068908094,0.0011879070050900464,0.0010974115969127906,0.005499791496039969
1611678146785812,-3.261626648018301,0.1989982695385045,-0.21027113674692832,-0.00044030479098421593,0.0003164044719545368,-0.0029966331054491866,1.53707156471126,-1.3151163376115904,0.015823128784697528,0.002476749221062617,-0.0001671738210310006,-0.00575912211291724
1611678146885812,-3.261635703051147,0.19900483239520989,-0.21032787651418922,-0.0001699789320325847,9.112991769678864e-05,-0.002078426133013377,1.5374007880336693,-1.3151168728627916,0.015419166051263039,0.001191864304675376,-0.00043635047008834884,-0.003755617075412017
1611678146985812,-3.2616488909635097,0.19905666616673484,-0.2103381116872493,0.0009227869639432385,-8.48115285332765e-05,0.004631063416435278,1.5374364062794523,-1.3150732203148843,0.015121266364382857,0.002042844935756455,-0.0004908886673700756,0.007475073396849059
1611678147085813,-3.2616489235684116,0.1990589841474828,-0.2103268287687186,-4.1859693059226694e-05,0.0002938459061066367,-0.001481764540736817,1.537367355419869,-1.3150773877407278,0.015195456535295035,-0.00504434319543751,-0.0002128452133533036,-0.0025373698958558286
1611678147185813,-3.261646615095678,0.19901453576208342,-0.21036465124617287,-0.0010167907662370754,0.0005848516608125069,-0.0031168016998402563,1.5376549388629281,-1.315088008082821,0.015297199859339892,-0.0006300856453589365,0.0002194150380895143,-0.005777300850821402
1611678147285813,-3.261641571260032,0.199017789479993,-0.21032983749726114,0.00027889124852725674,-0.00027146044523319103,0.005155908639670007,1.5374393854637356,-1.315061673297607,0.01558825154374523,0.0009699877888438891,-0.00016947267454442766,0.008498992046996754
1611678147385814,-3.261636071725969,0.1990333837423204,-0.21028239818566466,0.0005773106664710061,-0.002057818288535148,-0.0002961290013562262,1.5371123435552687,-1.3150795666734452,0.0156329150275647,0.0011627108900042708,0.0025366789077912364,-2.8526933213823293e-05
1611678147485814,-3.2616361484590706,0.19900725910757752,-0.2103154705406517,-0.0010772125713561583,0.0017631373415965186,-0.0030251807431152795,1.537313862903217,-1.3151301969749525,0.015424400068270666,0.0018873759014318928,-0.0019685398170786756,-0.005491207817742905
1611678147585814,-3.2616393767379632,0.19903955943305335,-0.2102890974165515,0.000374178952102691,-0.00010380842185509947,0.0036346141321492243,1.5371782805610708,-1.315049413783821,0.01574548157155694,-0.0038009822096851495,0.0003161918893071736,0.005801356141514124
1611678147685815,-3.2616321892079436,0.1990282986106573,-0.21026390667631867,-0.00030607190826533414,0.0007625367490770092,-0.002078231631324396,1.5370496901980335,-1.3150359325338454,0.01604988737160418,0.0009066867333057373,-0.0008540194806236861,-0.0029830737916184975
1611678147785815,-3.261630462616786,0.19898779205936976,-0.2103154082389964,-0.0001220145946779859,-0.00014368873281473847,-0.0013459775608278437,1.537328278107035,-1.3151347983760453,0.015538224263696693,0.000755800079674627,-0.0005776112464654263,-0.0027302544317814106
1611678147885815,-3.261629931575154,0.19903258119527895,-0.21025231915670434,0.0006690301885306394,0.00041873066830881483,0.002555096766798308,1.5369192102765683,-1.31508285606912,0.015837389681213013,-0.00017803309273200092,-0.0008796294236143427,0.004728080442113344
1611678147985816,-3.2616387051566362,0.19903695642791364,-0.2102922007135912,-0.0002111207008078391,-0.0010060743692420025,-0.0032478675979763835,1.5372104719210293,-1.3150537167856966,0.015724695832517063,-3.131646728296048e-05,0.0029517676645325857,-0.0057334637225096435
1611678148085816,-3.261632497614745,0.1989883688382185,-0.21031929312692937,0.00020536377651582323,-0.0010147457599503933,0.0016416269507035404,1.5373736933819766,-1.3151040282981927,0.015700747862109902,-0.001997563127615027,0.0012521756715746608,0.002741921890627535
1611678148185816,-3.2616327973841357,0.1990279560940751,-0.21027253627740827,0.0006919453573953826,-7.99084957209852e-05,0.0028303961592707617,1.5370627838590531,-1.315067796034146,0.01581303817774143,0.0005211920045845547,-0.000663944628543712,0.005430850953817226
1611678148285817,-3.2616428473755645,0.19906425137312578,-0.210280234868941,-0.00033485501034988073,-0.00022323099305139244,-0.003286510887137873,1.5371219627516857,-1.3150265145846638,0.015673887736847032,0.0008396428405529597,0.0006086537634269073,-0.006111100794541582
1611678148385817,-3.2616500515092177,0.19905982840751982,-0.2103285163716948,-0.00044973041360547346,0.0007814588340179596,-0.0006950841125818344,1.5374262736764432,-1.3150155084982496,0.015508682437865531,-0.0018695174240503723,-0.0008491926820194209,-0.0015355679492443902
1611678148485817,-3.2616435881850645,0.19906979480009093,-0.21027531073020653,0.00038257178294132994,-0.0004199021040713487,0.0042786195157682744,1.5371081156469988,-1.3149822684473702,0.015907623251487132,-0.0008440492645226372,0.0005930304252577675,0.007455407134508456
1611678148585818,-3.26164081866393,0.1990683064824716,-0.21026352664425568,0.0006077996450830231,-0.0006228482497938168,0.003010291612812103,1.5370301603462582,-1.314988518258936,0.015945201177422933,-0.00021616801171144584,0.0005441466331260465,0.005926048951758387
1611678148685818,-3.261641225212449,0.1990851486516446,-0.21023773260132478,-0.0005631007221841848,0.000609681909295195,-0.0034783371247942715,1.5368704109200104,-1.3149760887857467,0.01600906996092071,0.0025578587998899456,-0.00116943497682897,-0.005665089355052591
1611678148785818,-3.2616535526579113,0.1990981869373278,-0.2103031143337405,-0.0002493600796238044,-0.0007348660535684633,-0.0038152792336311665,1.537278612992781,-1.314963073035438,0.015574255252667188,2.284889727388362e-05,0.0014098625573781363,-0.007383976649905582
1611678148885819,-3.261650080216006,0.19907634449398742,-0.2103106029540669,0.0003022495022586848,-6.796271828835067e-05,0.0029224389506005313,1.5373029157348623,-1.3149968089439341,0.015564507948119926,-0.0013794296778367285,0.00014173485552745345,0.0050551017963029144
1611678148985819,-3.2616396655236204,0.19907189096756084,-0.2102504492812893,0.0002709739509788901,0.0003368543637317462,0.0008850432886050332,1.5369361973350562,-1.3150004648326752,0.015938763960651758,-0.0014130907736374025,-0.0007023213894730044,0.00205233924143513
1611678149085819,-3.2616471295339826,0.19907412059492174,-0.2102917915145811,-0.0008590863341850104,0.0009874897697335439,-0.003978292533907806,1.537210783219069,-1.314988199088002,0.01573168832360969,0.0005637479788527524,-0.001190315317997909,-0.00682507660434547
1611678149185820,-3.2616491189162686,0.19907446111894397,-0.21030715159797847,0.0005977125012351969,-0.0007476117903644986,0.0036743148722168163,1.5372930489776875,-1.314990721747818,0.015626393838332128,-0.0029708235838904213,0.000805466105070637,0.005867906693402942
1611678149285820,-3.2616427638937378,0.1990779221929985,-0.21026352804357068,0.00010678700645642534,0.00040107790290846545,-8.611390401237599e-05,1.5370218719688484,-1.3149864693860294,0.015880741261983952,0.0021311114822232975,-0.0002316474079314819,0.0005491480005728213
1611678149385820,-3.261644940568238,0.19906912829549225,-0.21028077561463057,-0.0009383496305329941,0.0004721354352125425,-0.0037518697676103534,1.5371314866770265,-1.3150021287050244,0.01576561065285875,0.001240608542986701,-0.000565645824876875,-0.006341077598983145
1611678149485821,-3.26164205731078,0.199057373862203,-0.21028842809435688,0.0005880155597534636,-0.0003463611702426182,0.003535844449110697,1.5371704557829293,-1.3150198284571268,0.015737635505826048,0.0001868803493322115,0.0006324487563873205,0.005965930813720721
1611678149585821,-3.26164011476098,0.1990603406015069,-0.21027124399984892,4.987925747972603e-06,0.0005608544797260602,-0.001160545739382962,1.537071899870946,-1.3150109940775585,0.01586485535494886,-0.0002638368002537818,-0.000709279616219878,-0.0011969178610671133
1611678149685821,-3.2616440926090147,0.1990465917282237,-0.21030804966743566,-0.0005308021703601902,0.00011704932492024786,-0.0018137760082370862,1.5373044795056092,-1.3150335279727292,0.01563292035600061,-0.0001197932808640159,6.483115111012695e-05,-0.0036964161895545558
1611678149785822,-3.261640553502742,0.19904042972070396,-0.21030006323810208,0.0003335973468205325,-7.146404416513502e-05,0.003592995257065823,1.537241127144756,-1.315042634172235,0.01568915466688307,0.0007801442492849476,1.1344637977721963e-05,0.006460584131858237
1611678149885822,-3.2616383020675683,0.19906356577341563,-0.21025203418998972,-0.00012889967083278708,0.0006001891112691071,-0.0010517673068509254,1.5369538369507691,-1.3150072765805154,0.01596768037453407,-0.0021150865316936444,-0.0010841501573772643,-0.0013746476677576507
1611678149985822,-3.2616491296341965,0.19907263876203599,-0.21030235035013223,-0.0009681031995992524,0.0012899534778657358,-0.0025377527451189283,1.5372689484908217,-1.314995962835443,0.015635894699645585,0.0017567503742089983,-0.0018164002072288818,-0.00465605325174367
1611678150085823,-3.261642087205252,0.19906695858343115,-0.21027616549984357,0.0006763999893488708,-9.43939377344235e-05,0.00327365168680979,1.537097567779342,-1.3150025487485693,0.015817281844300018,-0.0017104306264957138,-0.00010940820374976242,0.005963364128100684
1611678150185823,-3.2616416694929695,0.19906677620819158,-0.21026683473161506,-0.000586610441434879,0.0010724511356905325,-0.0032417927866475716,1.5370451053575984,-1.3150085039579835,0.015829504216027194,0.002165720558461927,-0.0014812726534199482,-0.00519828098649393
1611678150285823,-3.2616558121341805,0.19909491469300614,-0.21031305863768004,-0.00014555251606924663,4.896627886561542e-05,0.0009343617412653027,1.5373320553181693,-1.3149651352318443,0.015535922305150735,0.001916185076597832,0.00020006019438569366,0.0009479856143217229
1611678150385824,-3.261647222456496,0.19910044262939913,-0.21025696352776446,0.0009055196070943243,-0.001513146579896857,0.003130685832823205,1.5369873430034857,-1.3149518925559929,0.01591583567796234,-0.0034824355660978247,0.0020152843261626394,0.0056467925949420066
1611678150485824,-3.2616474525584493,0.1990881431134309,-0.21027295103282873,-0.0005930829607542397,0.0003815233439963828,-0.0037234196944385223,1.5371026922975488,-1.314961684527966,0.015873021698918792,0.0003196579008403037,1.1201869234688947e-05,-0.006146835614386238
1611678150585824,-3.261649833003647,0.19907831762609854,-0.21030068294148996,-0.000201710531730411,0.0007265924222342407,0.0015687264670405001,1.5372722331123752,-1.3149679989003686,0.015743756522494563,-0.0005088683250902212,-0.0013902334309850127,0.0023085562760387394
1611678150685824,-3.261636275988466,0.1990600174546191,-0.21024800747528444,0.0003900343552293497,0.0007532074804143177,0.0017559151460131049,1.5369333957772708,-1.3150017715989846,0.016046788939673824,0.0002157281033527951,-0.0014603067016991777,0.003447319521886421
1611678150785825,-3.2616449087698665,0.1990665025075669,-0.21028902064780758,-0.0010612747834092221,0.0017843482563809857,-0.004649174285997232,1.5371917590108093,-1.3150068473192353,0.015708476061649136,0.0008383024103981875,-0.0024973578823422994,-0.00805110797512354
1611678150885825,-3.261653704191954,0.19908356194703128,-0.21031657509064977,5.343246278015093e-05,-0.0001797522568666479,0.0016945764181641614,1.5373523152920527,-1.3149798988057384,0.015547300982738132,-0.002809422040024728,-2.5248471743113133e-05,0.0025639833447400895
1611678150985825,-3.2616402339756023,0.19906996264853438,-0.21025515120894922,0.00030139389122708774,2.9290025118143465e-05,0.0013301156444535354,1.5369800179310327,-1.314992465056393,0.015975499960324435,0.0012672197207663296,0.0004873898097479367,0.002601532815350914
1611678151085826,-3.261645382399106,0.19906819011869367,-0.21029077350639153,-0.000696091381618319,-2.87127202979034e-05,-0.00420491529480917,1.5372092631079892,-1.3149920229582135,0.015758675031634653,0.0016518592731282501,0.00022341212914205107,-0.0073200092060122695
1611678151185826,-3.2616512112850757,0.19907576906698318,-0.21031489997981087,0.0003126301717681582,-0.0009321898173128282,0.0020927672291047856,1.537335611544393,-1.3149917335516514,0.015553462678104132,0.0002852662495077475,0.0011457112399789328,0.0035272130811869547
1611678151285826,-3.2616408161362562,0.1990754958065336,-0.21024930511898554,0.00018264609942961668,0.0003019946174859022,0.0013192953633688164,1.53693246969058,-1.3149935511715625,0.015964839369638443,-0.0033759644231979333,-0.0006591775664672027,0.002757874881480673
1611678151385827,-3.2616422838828836,0.19907179454040028,-0.2102663642833874,-0.0009535366396181895,0.0012723868935647432,-0.0049983699834408295,1.5370612831707666,-1.3149847750274388,0.015923925339182257,0.0009804794961929017,-0.0015459720690816398,-0.008540117394270458
1611678151485827,-3.2616513381863395,0.19907142349624438,-0.21032243009602586,9.245599499005032e-05,6.244578546352486e-05,0.002102826891487762,1.537392736548188,-1.3149882930341874,0.015553403741304659,0.004179624139943156,1.2592097749566856e-05,0.0034002494842872654
1611678151585827,-3.261646230430097,0.19910066222368827,-0.21024850622834595,0.00023036551354920515,0.0007165559218117838,0.0018197095033232152,1.536930091359523,-1.314953224150565,0.015948816255655394,-0.00172180949151801,-0.0015729322378339413,0.003643196793061136
1611678151685828,-3.2616515816105673,0.19910814376746586,-0.2102708011332888,-0.0006723794963280753,-0.0003416492396462942,-0.00461659352134526,1.537078734321648,-1.3149438726735851,0.015799031303730556,0.0006344828897395303,0.0011427839913854708,-0.00786511284654327
1611678151785828,-3.261654128965651,0.19909303552333965,-0.2103127992224691,2.70303878495613e-05,0.0013028403790285113,0.002499850883555703,1.5373289017424587,-1.3149602578549493,0.015577041234197944,0.0016552572236874397,-0.0021713632847421543,0.0042708472151584895
1611678151885828,-3.261650130399085,0.19911952176329992,-0.21024435359516785,0.00014862479523274847,-0.0002098133202047987,8.836568389642801e-05,1.5369067576060103,-1.3149272568426917,0.015935879875723424,0.0016589110106572384,0.0004301538092935938,0.0006447145914695887
1611678151985829,-3.2616618403498188,0.19912308787545624,-0.210316098191085,-0.0005698427567641089,-2.5843803141824235e-06,-0.0025707938275156975,1.5373527254604928,-1.314926714834633,0.015478888933247961,-0.001412198203245294,-0.00020436208945023927,-0.004635740380987213
1611678152085829,-3.2616553067037657,0.19912711021742022,-0.2102703050131422,0.0008460672972661194,-0.0005145750544324852,0.004113066445566868,1.5370689854900346,-1.3149106109735642,0.01581193660552134,-0.00012875292715566934,0.0008340479949817119,0.007137563022262564
1611678152185829,-3.2616515965440573,0.1991103990002654,-0.2102653866353954,-0.0009199928315024283,0.001430451270216938,-0.0038457893196786144,1.5370457652120169,-1.3149338870491667,0.015855429218921923,0.000702709925468157,-0.0023157388208494482,-0.006157219834785755
1611678152285830,-3.2616638033989376,0.19913881337233577,-0.2103067848407726,-0.00010182236428867061,0.0006262144144979824,0.0009881103484931906,1.5372966879037846,-1.3148970817899484,0.015545792236461985,0.0004474399287980189,-0.0011537083836190745,0.0012664100492763607
1611678152385830,-3.2616499519065743,0.1991204275647304,-0.21024969993734355,0.0006913306295204174,-3.829558204821953e-05,0.0026053433941336376,1.5369407971230056,-1.3149206745180395,0.015945421127713046,-0.001615696886958364,-5.0334967631890795e-05,0.00489037964412528
1611678152485830,-3.2616547476096613,0.19911114459007023,-0.21028481264108007,-0.00090902675200369,0.0007095059542607871,-0.0045699118349298695,1.5371665124384641,-1.3149386165813788,0.01570266645918084,-0.0011223793042642396,-0.0012235228962133792,-0.007807387878647967
1611678152585831,-3.2616575846003144,0.1991170861272515,-0.2102961148534062,9.998937481078033e-05,0.000329270898751034,0.003018572748022044,1.5372250746804579,-1.3149256657797324,0.015665768687942058,-0.0021323414225319463,-0.0009152281411595249,0.005087541387142312
1611678152685831,-3.261644787995688,0.19909934239235344,-0.2102441097469967,0.00027996939668378324,0.00037426102335790255,9.138788292029258e-05,1.536915585198786,-1.3149464428166924,0.016022252925331628,-0.0002501985574338944,-0.0004810372601876712,0.0006508215040447533
1611678152785831,-3.2616510044861196,0.19909819332662781,-0.21028021157810728,-0.0005985886609515248,-0.00032946644123333014,-0.0042805110962160445,1.5371306631365929,-1.314958596940738,0.01573390935051601,1.8565953361141424e-05,0.00031914825427823524,-0.007296003334097457
1611678152885832,-3.2616543544163923,0.19910597150011325,-0.21029421123032666,0.0004777505117573302,-0.0006197390572485496,0.003005176597849245,1.5372087074890188,-1.3149499680500971,0.01564119184305445,-0.0004568152565305464,0.00088530007231738,0.004902710965051172
1611678152985832,-3.261644334920616,0.199093288574693,-0.21024905997400117,0.000571780627534801,-0.0007091384732345088,0.0017188370067776496,1.53693389127173,-1.314965186475836,0.015961774573844095,-0.0025893523816032864,0.0012126357631833346,0.003520801715373786
1611678153085833,-3.261644108780268,0.19907035296407802,-0.2102766611396386,-0.0006695715204669107,0.0002611821890860646,-0.003893872872882664,1.537123959323727,-1.3149826665911948,0.015884839777925853,0.0004758173363394321,-0.0001626620248184795,-0.006561153637444939
1611678153185834,-3.261646015272385,0.1990686432612755,-0.21029177476987085,2.7831783075788415e-05,-0.00015561048686498586,0.001860653857829496,1.5372032965063707,-1.3149900197404565,0.015757069545380857,0.0012718666347506893,-8.178212472790889e-05,0.0027267416914216196
1611678153285834,-3.2616368958881177,0.19906243636014637,-0.21024862004368827,0.0007306178490508853,-0.0006503109078011975,0.00278709590508941,1.536917850282797,-1.3150129451051231,0.01597433624188588,-0.001631716231491599,0.0006875180526008134,0.005370633235285897
1611678153385834,-3.2616367003602442,0.19906226559287293,-0.2102443698676199,-0.00033852970662009876,-0.0007790258256975379,-0.00429330777031926,1.536914948658133,-1.3150049569542253,0.016047836131605115,-0.0035148185069626436,0.0012765816580329672,-0.006922378185691431
1611678153485835,-3.261650730754212,0.1990724814551621,-0.21031911563055283,0.00025299925316138114,-0.0007497820970316495,0.0011351134894201293,1.537382716186823,-1.3149759617176071,0.015643515291995043,0.001623695046491498,0.001449370918016089,0.001544649582618854
1611678153585835,-3.2616439645546524,0.19909551868746847,-0.2102433672680967,0.0003851209780739697,0.0003874318963301411,0.0028390380488418536,1.5369055160939968,-1.3149430220096197,0.016068399251277857,0.004374197344073721,-0.0006153915635686224,0.005691387792463857
1611678153685835,-3.2616533114248787,0.1991228905697043,-0.21026374600102044,-0.00044334317448511094,-7.308645305006987e-05,-0.004050220210050962,1.5370426518992455,-1.3149141108101716,0.015864700179177023,-0.0006328635881413081,9.592905423979867e-05,-0.006707747873889734
1611678153785836,-3.261662620384461,0.19911469629894746,-0.21033346643768028,-3.5548657612500376e-05,0.00032682202776289213,0.001151660410936052,1.5374636539986148,-1.314924237716729,0.015471837898030331,-0.0014785588467355717,-0.0005209273454519836,0.001696685395106128
1611678153885836,-3.2616525507345395,0.19912797959434975,-0.21024883885363937,0.0005570604917565293,-9.22094907574403e-05,0.0032061523526829058,1.5369495650699248,-1.3148913706861407,0.016042821406842288,-0.001608066462384429,-9.489240823171757e-05,0.005980942377689171
1611678153985836,-3.261647891604393,0.1991128525478516,-0.21024179397297266,-0.000135758603197042,-0.0013376020788225757,-0.003467397558750843,1.536914328559782,-1.314915222038513,0.016080770831567563,0.001153386243919324,0.0023408913202586654,-0.005440242440248494
1611678154085837,-3.261656177614849,0.19911198565897853,-0.21030052333067167,-0.00014338410491075135,0.00023692476320171242,-0.0012896146968414991,1.5372672576923914,-1.3149231917825486,0.01568980843132728,-0.002778047327467205,-0.0007195920937853099,-0.002651107113707433
1611678154185837,-3.261661008995265,0.1991439538156678,-0.21028027797623872,0.000523491932035922,0.00017572910401634714,0.004226444831803441,1.5371292379806414,-1.314876028721911,0.01578662561038583,-0.0019855519373869024,-0.0009093165774281816,0.007552505988041781
1611678154285837,-3.2616441823917484,0.19912177949188903,-0.21021147517943467,0.00031763634642515776,-0.00033212762274354324,-0.0006543404243705029,1.5367126739138686,-1.3149130353711402,0.01620035597529545,0.0008861969687629228,0.0006363849149359176,-0.0004198011720659507
1611678154385838,-3.2616593816909467,0.1991428936007717,-0.21027307566307102,-0.0005338073603334205,0.00033035853260780134,-0.0033794492830789263,1.5371114344045154,-1.314869599187343,0.015873954353851544,0.0013623047011092598,-0.0002234275620079208,-0.005891646924128598
1611678154485838,-3.261661434744663,0.1991297914006096,-0.21030126568274993,0.000169734201570968,-0.001065695783242545,0.0010756881703948187,1.5372791174158598,-1.3148878728714897,0.015720261553672215,0.0013978953027688596,0.0019361039521209565,0.0015939343919324136
1611678154585838,-3.2616480089274718,0.19910861435777816,-0.2102538711710058,0.0008218601611340076,-0.0009068946057409435,0.0028298032625428972,1.536970605131263,-1.3149249555322253,0.015994727369962988,-0.0004990622038381928,0.0009734514116698507,0.005286044172751419
1611678154685839,-3.2616475489070442,0.19912254210990707,-0.2102261127742442,-9.746168396718787e-05,-0.0001995038530928906,-0.0020488540327845265,1.536811319064971,-1.3149001327954704,0.016169719342338518,-0.00019276828297122803,4.1675124831174216e-05,-0.0028533719969490185
1611678154785839,-3.2616581643972617,0.19913004887894192,-0.21028180723128098,-0.00034964458432807684,-0.0002424049618624089,-0.0025042165035826865,1.5371566590902253,-1.3148981899503986,0.015773400930208847,1.7489540973685635e-05,0.0004853591520299787,-0.004651045450684973
1611678154885839,-3.261656720199852,0.19912122557772505,-0.2102883461284567,0.0002879874184394484,0.00026206943340511884,0.003525592571844665,1.5371769176835752,-1.3149122638179462,0.015747900508366438,-0.0018739129902041408,-0.0008700122500752495,0.006144104516448922
1611678154985840,-3.261650784178969,0.19913509226936,-0.21023338024673555,0.0003763824299627137,1.1001631282473483e-05,0.0012122914701533133,1.536847922651798,-1.3148884610693952,0.016082230077291662,0.002101018923375867,0.00027392092348711185,0.002887681037127817
1611678155085840,-3.261652022029171,0.19911692703376144,-0.21026143997374502,-0.0006179791935511788,0.0002230365186080541,-0.003969113346336768,1.5370275421343478,-1.314916789390814,0.015912568305291024,-0.0008117236127093892,-0.0005955114808004821,-0.006656180736967042
1611678155185840,-3.2616637090675713,0.19913713275303946,-0.21030825873429265,6.0730011352845973e-05,-0.00032390559637785225,0.00071090449189431,1.5373101362900496,-1.3148876949339032,0.015609898713703078,-0.0003160395330051084,0.0003289150484697161,0.0008418776720561306
1611678155285841,-3.2616544264797773,0.19913649197059222,-0.2102544652591948,0.00045151042047788224,0.0006655123211262238,0.002769689670673161,1.5369745718315413,-1.314884979612001,0.015962725750286066,0.001095159125795493,-0.0011908274867232463,0.00527247670783911
1611678155385841,-3.261644494377281,0.19910837191171377,-0.21022858651262172,-0.0006530623229639965,0.001798853666695479,-0.002944253261707338,1.5368202980900751,-1.3149266765837655,0.016142722380400414,0.0011778280518219704,-0.002570819176612549,-0.004374272415032822
1611678155485841,-3.2616629940110053,0.19913891377346832,-0.21030187410224638,-0.00013842238284744323,-0.0002437499649289206,-0.0006988151809586191,1.5372777232752677,-1.3148814476264041,0.01566321538826783,0.0005420481676141213,0.0004313889652719363,-0.001441044852346815
1611678155585841,-3.26165355148562,0.19911980813093333,-0.2102736546231671,0.0006030129990099277,-3.819489537381506e-05,0.00281564505787798,1.5370891410988339,-1.314912404351956,0.015849875671221703,-0.0009750818676273402,-0.0001747690581179646,0.005235380752398797
1611678155685842,-3.2616483040799444,0.199116222145857,-0.21024085377648277,-0.00019014604399187392,-7.895447916855277e-05,-0.002976751897827087,1.5368996825982457,-1.3149123359498442,0.016074080597717824,0.0017456397534231782,0.00024208295130357982,-0.004218455697694359
1611678155785842,-3.2616558854969755,0.19910835098133892,-0.21029906103928236,-9.865997130996936e-05,-0.00037001295955078363,-0.0004372688809653511,1.5372609657525984,-1.3149234298202617,0.0157231713953927,-0.0001605144467894274,0.0004336708632933861,-0.0010722689493380933
1611678155885842,-3.261652177322481,0.19912784328118666,-0.21025061748327317,0.0006711122618309054,0.00020617206771160416,0.0037175856704106582,1.5369485238709761,-1.3148971394012232,0.015999002020273552,-0.005513511700658771,-0.001421961243773427,0.0067316670889602664
1611678155985843,-3.261649313635072,0.1991208577840243,-0.21023999152409958,-0.0006654722523581232,0.0009193192217429503,-0.004073372877807523,1.5368904235821212,-1.31491179590146,0.016039721426917425,-6.541029710093367e-05,-0.001522613045103108,-0.0063260257194125286
1611678156085843,-3.261657057858156,0.19911926546549463,-0.21028869264658046,-0.00012936460604939473,0.0007534554515198317,0.0013020136407995307,1.5371931308096658,-1.314909334951578,0.015767304511332552,0.00031352068942477434,-0.0012449477325568849,0.0017831100241651181
1611678156185844,-3.261646833560058,0.19912141343236742,-0.21022662361322259,0.0009104501029170885,-0.0008886269690974315,0.0038087745341593,1.5368001896678696,-1.3149081875822624,0.016140425165003698,-0.0022266009320886866,0.000868361745723477,0.006867003525779453
1611678156285844,-3.261651462719403,0.19913964906796694,-0.21022825046568044,-0.0004811094287997942,0.0008235489723185828,-0.0034910618763206737,1.5368321630871886,-1.314875046188973,0.01613694390480487,0.002390646221669494,-0.0010634963787364245,-0.005471522426157524
1611678156385844,-3.261659159403689,0.1991338304506476,-0.21028003280147217,-0.00021716163235867443,-0.0009176567386492352,-0.0015375543836481302,1.53714851826727,-1.3148829562443505,0.015831473742966232,2.101532753012378e-05,0.0012321142225514272,-0.0028854530885408063
1611678156485844,-3.2616551063163226,0.19914242978550603,-0.2102463719864865,0.00029703534799847934,4.823628967407546e-05,0.0030214127987300836,1.5369305191298264,-1.3148707881499875,0.016031609125856126,0.000679678033642609,-0.0003395593040532011,0.005552504144306699
1611678156585845,-3.2616497790869436,0.19913596827620722,-0.21022395755790196,-0.00028028608997104893,0.0013555484263076572,-0.0014315900082417573,1.5368040647125671,-1.3148773358261845,0.016185862959493348,0.0019206305914923926,-0.0020125156126133974,-0.0020075857656357797
1611678156685845,-3.261659612444749,0.1991398160760715,-0.21027493494731309,-0.0007161283583354788,-0.0001230282152004116,-0.0036431542593839575,1.537125694003006,-1.3148685520922159,0.01588603316667273,0.0003559384308758421,0.00014805567235095892,-0.006346336345590376
1611678156785846,-3.26165800721882,0.19913361603644783,-0.2102774058879281,0.00039736133260215013,-0.00042692155213854086,0.003323526877764307,1.5371248247247196,-1.3148822800040503,0.01585804755054803,0.0002693888165874207,0.0004851936882630845,0.005802996664923594
1611678156885846,-3.2616469281018077,0.19912357069199368,-0.2102240418140691,0.00034180601569293117,-0.0007754288566098014,-0.00046068666553789636,1.5367965890650719,-1.314897210957026,0.016193015537860317,0.001593186764172967,0.0013427130771947494,6.635895678711527e-05
1611678156985846,-3.2616527536545377,0.1991162617322262,-0.21026707235997008,-0.0008383923419244564,0.001434544395900476,-0.0037639134649902614,1.5370731340684058,-1.314909764294579,0.015922612091420735,0.0006461574060992755,-0.002099034258641945,-0.006438394917711617
1611678157085846,-3.26166311265748,0.19913952450640848,-0.21029815648825917,1.2351345486442229e-05,0.0005685835398767593,0.0033570576393199035,1.537256309796556,-1.3148776301366332,0.015703971544165942,-0.0016465663612816694,-0.0012875297447295792,0.005236003432428883
1611678157185847,-3.2616530885114323,0.1991420804898594,-0.21023728057839586,0.0006298136363667675,-0.0006904872894515116,0.0014791044700471808,1.5368818937888693,-1.314870223881739,0.016095035530360173,0.0006950367282471252,0.001137235719895461,0.003164628014315407
1611678157285847,-3.2616591710154763,0.1991531447929601,-0.21025344463254697,-0.0005886563566293231,-0.00017096419350801556,-0.004270040714120303,1.53699930032476,-1.3148506902916273,0.015994777614700924,0.001047585337332838,0.000526453394472877,-0.0071255380621446955
1611678157385847,-3.2616604755898635,0.1991439310989774,-0.21027618513926805,5.440852426059437e-05,0.00029913443101249344,0.002214345312963244,1.537127726773515,-1.314865291935862,0.015866501068567,-0.0038009186819431637,-0.0010616233708385153,0.003156722359978443
1611678157485848,-3.2616507568860658,0.19913294867235332,-0.2102339584709903,0.0003547143265671036,0.0004933730250188771,0.0017260166166527203,1.5368629663003048,-1.3148851222528606,0.016114364312047533,-0.0002922364983200255,-0.0009335485820724727,0.0031946562168526384
1611678157585848,-3.261661353233153,0.19915020547255383,-0.2102696352714209,-0.0005517684336192459,0.00020382037790666048,-0.0030429393126397467,1.5370906492035838,-1.3148620154482136,0.015860502523780698,0.0017701186379500947,-5.9194235657145405e-05,-0.005184412192273525
1611678157685848,-3.2616629582478547,0.19916130084129047,-0.21026788995794146,0.000706263042497945,-0.0015816806538112601,0.0037863025417936634,1.5370775067822482,-1.3148392128716806,0.015899919308007156,-0.0007418431644111497,0.0022916372675493954,0.005989424421884187
1611678157785849,-3.2616560039969484,0.1991599822305424,-0.2102288605407583,0.00023878152736202054,-1.2320975163433002e-05,3.420800830123199e-05,1.53684428172042,-1.3148374150240114,0.016161372261790034,-0.0008823531608624373,1.644028539612079e-05,0.0004186773224895449
1611678157885849,-3.2616637219995726,0.19916046492466088,-0.2102730932881608,-0.0006714097113016768,1.831943993263951e-05,-0.0035007024340490047,1.5371136596779311,-1.3148435948936463,0.015847925188609474,-0.0013695655608727706,-0.000399610174827017,-0.006169627044335754
1611678157985849,-3.2616636834318267,0.19916176602810143,-0.2102732623583525,0.0006971789787898067,-0.0005141819513814545,0.004512010737228191,1.5371083521401667,-1.3148395575576137,0.0158646708565501,0.0010170585387540788,0.0009289235610946305,0.007451671371145551
1611678158085850,-3.2616510243062877,0.19913719302979083,-0.21022858419590323,0.00010576266910149225,8.551518918412524e-05,-0.000631119761384872,1.5368275147081003,-1.3148842478205178,0.01611554688196361,0.0002292001831579105,-0.0001285962683981083,-0.00042730577614454447
1611678158185850,-3.2616636899807703,0.19915098681970883,-0.21028477349136432,-0.0008136651421441141,0.00046734556919067385,-0.00435165071073962,1.5371943003783775,-1.314855091249359,0.01580039389455927,0.0019608950533085375,-0.00031141760939278453,-0.007605497855685005
1611678158285850,-3.261662662912399,0.19914449226927045,-0.2102870261244743,0.0005168977407999716,-0.0005746586147960999,0.004158620097315501,1.5371908138635373,-1.3148684352720903,0.015780962931900053,-0.0021177425674998975,0.0006613829922841066,0.006735571634411345
1611678158385851,-3.2616470158661746,0.19912273608389852,-0.2102209774760464,0.00042068263308504464,-0.0009447470750038503,0.0007268680161322968,1.5367808134728256,-1.3149021446596776,0.01619395193009707,-0.0016127701548871614,0.0012057422460776091,0.0016446799027819451
1611678158485851,-3.261655720354106,0.19913814522901077,-0.21025306347610861,-0.0006544987576777709,0.0005432081111401776,-0.0038682006333298495,1.5369964547916057,-1.3148746806440947,0.01600560700534234,0.0013687034438786428,-0.00048801040117566017,-0.006563684209360983
1611678158585851,-3.2616590377329624,0.1991245356522002,-0.21029598372956054,0.0003691121820752214,-0.0011778861510338948,0.0017793702741078074,1.5372470364885937,-1.3148995476202499,0.015739165786547413,-0.001730556980721012,0.0017815385719903744,0.002665993837837655
1611678158685852,-3.261653535482732,0.19913208025599696,-0.21024916855127468,0.0004150043654523539,0.0007540818847690083,0.0032167065258450487,1.536956419920625,-1.3148832207034318,0.016043890360962935,-0.002250169763022687,-0.0016210296239517127,0.005671736933593593
1611678158785852,-3.261654057707485,0.19914670927125638,-0.21022978881327692,-0.00021668693243448366,-0.000600546455824455,-0.0031537127084646354,1.5368482764558344,-1.3148648113788484,0.01611904195511588,-0.00033130859548486394,0.0009507778983480984,-0.005122531008768264
1611678158885852,-3.2616606660758345,0.19912729064274537,-0.21029765878057455,-2.1085193855062647e-05,-0.0019117847141882573,-0.001494642597173768,1.5372624013499245,-1.3148955180589543,0.01571371528728231,-0.001599979507630783,0.0026481189940972295,-0.0029750950038238697
1611678158985853,-3.2616548437115402,0.199131015070786,-0.21025798409730756,0.0006126279275930199,-0.00026703994374753493,0.004152212507921577,1.5370093087152823,-1.314888392372482,0.01597125713630602,-0.0004727400392546213,0.0002245588464144913,0.007098962420965391
1611678159085854,-3.2616550932042943,0.19914021498303602,-0.2102475585536538,-0.00040975833012314,0.0010863356727886014,-0.002513704383038649,1.5369485422019693,-1.3148846511363386,0.01596661858768802,-0.0007636282067989017,-0.0016780048053988384,-0.004147813204654179
1611678159185854,-3.261663631987017,0.19913497048826823,-0.21031068309701992,-0.0001708961876887826,0.0001455220432084894,0.0006611321645801608,1.5373328043124712,-1.3148933873700053,0.015576892580216115,0.0032476528755492223,0.0001319960931129388,0.0008130884169639775
1611678159285855,-3.261658021741356,0.19914746104863107,-0.2102580205027928,0.0006674086425452562,-0.00046177116824726197,0.002605544367946362,1.537004277660992,-1.3148758341983129,0.015889563701854247,0.0017932915450894267,0.0010083747590489119,0.004519890770864293
1611678159385855,-3.2616587055542183,0.19914294241006436,-0.21026743660443767,-0.0003256577651957538,-0.0012545718254031839,-0.0045939378289209815,1.537066579679446,-1.3148863848270036,0.015811351189796968,-0.0018897032008102833,0.0018832613657052398,-0.00747876512207624
1611678159485855,-3.2616684667740383,0.19915128564811335,-0.21031594531661613,0.00018351509760233887,0.0002658922017104228,0.0028631866911807318,1.537351417431897,-1.3148791269720954,0.015474168787880719,0.0005832944270364133,-0.0004309443976740457,0.004428443965703334
1611678159585856,-3.261660699877752,0.19917178733516827,-0.2102375025719847,0.00026640137280572345,-0.00040997026574108377,0.0006844674062047107,1.5368601621995532,-1.314859186698663,0.015887415087531588,0.00298818580999999,0.0009927176818149126,0.001673696895918219
1611678159685856,-3.261658501176383,0.19913215822966543,-0.2102808997506902,-0.0010295041894893063,0.0015027481732214556,-0.004417589231705787,1.537136774766994,-1.314917465548182,0.015664593586790586,-0.0007648349071295287,-0.0023017776494151433,-0.007534329654234563
1611678159785856,-3.261667380725165,0.19916553192570574,-0.21029082035445512,0.0003345103508807265,0.0006800246134010788,0.0040532589438173755,1.5371978615224664,-1.314857104847852,0.015630076320025683,-0.001216720620822401,-0.0012110025165758226,0.006456335193825789
1611678159885857,-3.261658117544437,0.199164878202109,-0.21022929690358533,-5.406544097863e-05,0.00010297250709723943,-0.000947485310643867,1.5368228529962384,-1.314861253644643,0.015979172461587095,-0.00012285345503284582,-0.00012772672094174797,-0.0013192250665444937
1611678159985857,-3.2616674412002418,0.19914673604174962,-0.21031982150615744,-0.00028800174680945756,-0.0003557404375581704,-0.002084652787593307,1.5373741562065093,-1.3148990900046287,0.015385383159485795,-0.0008103919195763621,0.0004909528013270283,-0.003944965455122328
1611678160085857,-3.261659828115094,0.1991432612371675,-0.2102713507334334,0.0006039477706355771,-0.00010904188622204941,0.004110204531325733,1.5370643659341114,-1.3148990380117942,0.01571998158952453,-0.0012036643892853844,-9.46050445927984e-05,0.006882278468139639
1611678160185858,-3.261653837793859,0.19914344752365248,-0.2102320499668544,-0.00031845243362220536,-0.00011534124873982646,-0.0028247573738717593,1.5368410734032893,-1.314893280892913,0.0159870617368931,3.530089939770217e-05,0.00029208066946869544,-0.00449683801579594
1611678160285858,-3.2616649294367925,0.19913782368825234,-0.21031734800443838,-0.00023928685111014117,0.0007077574821497347,8.999806284944237e-05,1.5373627195545334,-1.314902074292799,0.015467581157874596,-0.0009523630071985252,-0.0012343284597014182,-0.0004441774809687514
1611678160385858,-3.261656147330574,0.1991271945696984,-0.21027616192176402,0.00046691749258731264,0.0008369137890390985,0.003001035099213125,1.5370978444974885,-1.314918506603932,0.015727960453158687,0.0003973675146844007,-0.001404440939487775,0.00548969517709622
1611678160485859,-3.2616567645567454,0.19912458851748988,-0.21028073942202485,-0.0009872771244049138,0.0016364571913143658,-0.004590979368278016,1.537133731501047,-1.314931002800979,0.01564929521874997,0.002764800050031903,-0.0021265242677483416,-0.007529556696628369
1611678160585859,-3.2616626340038892,0.19912285174078395,-0.2103228454852567,6.204173124194265e-05,-0.0003374155501206162,0.00039487700237457896,1.5373878188144974,-1.3149283601344555,0.015433113630167248,-0.00031630140375948885,0.0005663193048771454,0.0003659124417954447
