GPSTime,easting,northing,altitude,vel_east,vel_north,vel_up,roll,pitch,heading,angvel_z,angvel_y,angvel_x
1627411476075674,-91.36019476177427,69.68431300884757,-0.5707299441762401,-4.07845047202559,4.352711201077743,0.001958628339216179,1.5916280918347054,0.7329464114689169,0.018832328062023194,0.16141309016418193,-0.34706193957994735,0.0374342933513429
1627411476175675,-91.77515491591369,70.11002884065438,-0.5722694772517424,-4.2372123753659,4.1657685249347285,-0.0094115338243269,1.5840138359116251,0.767910774154916,0.004794050717537865,0.06364792714479006,-0.3411473581457976,0.08912744184306155
1627411476275676,-92.20845405111133,70.51358869996558,-0.572895326487588,-4.448308996588157,3.886684501428409,0.016243953316371042,1.5772562407300361,0.8019086338627591,-0.007845498967393094,0.021874931577077792,-0.3278327514420272,0.010858906725524444
1627411476375677,-92.66754930771184,70.88834394173128,-0.56501490628489,-4.707818185502769,3.675464685760807,0.14675796340655584,1.5751743654106922,0.8375360030027896,0.0004599630821590191,-0.09069299853913773,-0.37337704854429676,0.05548450233206432
1627411476475678,-93.14067172880563,71.24984882286944,-0.5555824783421647,-4.73961037973256,3.548527199087263,0.062167398899273245,1.5832628102084874,0.8759524905073249,0.008285363223013306,0.022716695368725594,-0.3864685694424629,-0.088924513359225
1627411476575678,-93.61530532781852,71.59739244137849,-0.5485284578805902,-4.771446765594605,3.3840342823270406,0.04801419864839658,1.585867728341855,0.9141457273331183,0.007772603868746254,0.12845913921569166,-0.3803425558250057,0.028680825856864968
1627411476675679,-94.0970640807057,71.92749762130896,-0.5472071803872609,-4.89790905962436,3.192970347790581,0.002301676672539851,1.5847619497914311,0.9520140638007399,0.002862972934352741,0.07820503204966647,-0.3750009921941529,-0.024353676850157158
1627411476775680,-94.59649751755283,72.23173887658318,-0.5453876242466981,-5.079309066235876,2.9093759339576857,0.04998442013846421,1.5920236099055047,0.9890739716994068,0.008863581629549918,-0.1796286129764788,-0.3656370222778698,-0.009274872419869082
1627411476875681,-95.10789038586086,72.50767534298174,-0.5422746984258829,-5.147065568076793,2.630088167664579,0.05551811793855245,1.598433095673428,1.0263793184602692,0.01738144974193456,-0.09029442678818576,-0.39094850671280157,0.01007587773134933
1627411476975682,-95.62766136079185,72.75604295035477,-0.5375995081429487,-5.242182887464291,2.3874199163458103,0.03279891731825553,1.5993089109953347,1.0658682157333572,0.027001325423747793,-0.17416592933865824,-0.40072903768001694,-0.009364223409332897
1627411477075682,-96.1558478724302,72.98685310032725,-0.5380743322199553,-5.321438715835784,2.2623081782316206,-0.01932296139051208,1.605172201424913,1.105753775321071,0.03448841073087807,-0.0837096042051272,-0.40637504321631873,0.04737062509365423
1627411477175683,-96.69089338257885,73.20661917219995,-0.5469591560469732,-5.382219991854214,2.113373926921882,-0.1495739111599993,1.6126716572961632,1.1458075924296065,0.03907458323560523,0.1689168867948251,-0.3739991578469611,-0.1310847681075621
1627411477275684,-97.2367972678453,73.40376937981725,-0.5540902849547837,-5.514674567757534,1.826628089424256,0.013926935557848399,1.6395256432420504,1.1851419502514895,0.06689283611479105,-0.005601714302589039,-0.39144447156073836,-0.011886188407127986
1627411477375685,-97.7889023128537,73.57463021717965,-0.5529592749264942,-5.551567144900422,1.568136425475563,-0.012513273061337864,1.6593307285697416,1.2236490939397764,0.08506634981428692,0.09768518617276577,-0.3846799744886658,-0.05750404302530272
1627411477475686,-98.34459482359999,73.71936532910306,-0.5548250458492816,-5.551897535664685,1.3208859215209554,-0.03333969599181662,1.683450595914813,1.2619818057794259,0.11513016153504305,0.024645283353222254,-0.3940061023167999,-0.013277425876491703
1627411477575687,-98.89462496290194,73.8485372941865,-0.5596121085261087,-5.466121670887625,1.2632575882121726,-0.08579139782643648,1.685996249984268,1.3017701487033195,0.11882423254332154,0.15879411399976834,-0.4040624975130696,0.1019466765233106
1627411477675687,-99.4434837295933,73.9647365525897,-0.5717105277306465,-5.554633412942155,1.0166503157273845,-0.13114809849220396,1.6723397538017033,1.342602362616385,0.09242107330613399,-0.18842842359783218,-0.4069498388674459,0.02070107198367288
1627411477775688,-100.00514233432291,74.05013602706396,-0.5844544241428697,-5.69917379054776,0.7232533584754414,-0.007350295243696791,1.6922321856506455,1.379737145113668,0.1142574553408068,-0.16824800699767825,-0.37746390085927206,0.12185275216210503
1627411477875689,-100.57433776488429,74.10498198516902,-0.5896685594284701,-5.678846959580458,0.41340910832404226,-0.060586727791838844,1.7303389156241902,1.4153832423080766,0.15920151288931408,-0.21005025022710605,-0.3526936504703298,-0.08681053146827217
1627411477975690,-101.14403065839046,74.13915151031661,-0.5873072502794994,-5.707786470261723,0.3299402844534521,0.08840566860451003,1.761993892645118,1.4495988378448486,0.2019772960511495,-0.06854272164517361,-0.3452797433837634,0.09471437253905533
1627411478075691,-101.71643075457024,74.17290601506389,-0.5798284288687191,-5.752310503298085,0.3277706948811099,0.028111720808567237,1.7525901749625648,1.483880413370855,0.19020043743763904,0.014751347645691222,-0.31853073449374647,0.0589638518777505
1627411478175692,-102.29427688993046,74.20120451251839,-0.5834362663571433,-5.807184495947393,0.18464754630493657,-0.08520529320981149,1.761720570767521,1.5128743903443778,0.19363714642141996,0.1144293730093811,-0.2642219423323623,0.051245539758588046
1627411478275692,-102.88071040193624,74.20894885222735,-0.5926229741059947,-5.932288696533739,-0.044933001878844935,-0.06053480230270117,1.7048306285475636,1.5368326336112594,0.14100303654598223,-0.022275284454948835,-0.21472132201217134,0.09169440205013334
1627411478375693,-103.47807142489772,74.19755745605053,-0.5962101053509832,-6.025281548798432,-0.1822016928733344,0.005621520815029464,1.730037618666519,1.5568691311078084,0.17311337042925734,-0.04628621078535655,-0.19793107525709297,-0.047193639224807286
1627411478475694,-104.08724975886406,74.18033821864665,-0.5878082995123808,-6.142576948206081,-0.15115328662250488,0.11145541982226329,-2.5418261026542273,1.5636763381520977,2.1920073656125525,0.02632577883014534,-0.16455145796397266,-0.02286742006000157
1627411478575695,-104.7042610840969,74.17230875042569,-0.5792922632926815,-6.192520051784513,-0.009807899526244356,0.0496029292795247,-2.03580943178837,1.5508653623783455,2.6948721084111793,0.07990345032747481,-0.12402145274033413,-0.01311443370951609
1627411478675696,-105.32400432486125,74.17202497170467,-0.576900350850114,-6.215248306079535,-0.03330037631446753,0.0026353386614051616,-1.8270055733234392,1.541700109887095,2.8904093606052523,-0.055223571845502945,-0.09400582915865806,0.03139999719520035
1627411478775697,-105.94984526412767,74.15751668922717,-0.5792472283183081,-6.311723774406584,-0.2330590890218,-0.025901915846985635,-1.7196353079283284,1.5333570768894418,2.9976434817602224,-0.1306164975745523,-0.07438696408975914,0.003968513776716861
1627411478875697,-106.58730853980424,74.12363078994348,-0.5818439097220796,-6.431623499740418,-0.4115120439716664,0.00031396544490284333,-1.7492428390648171,1.5258881851865056,2.9745075780635815,-0.14990702654706053,-0.05328147126221331,-0.024530009974098797
1627411478975698,-107.23451308520731,74.07968152055534,-0.5821604690277992,-6.511816623266328,-0.3599007733017701,-0.018345809183729935,-1.821358035359175,1.5212191048928212,2.9184225343763224,-0.20224397168789413,-0.01921463096372487,-0.07075440794593248
1627411479075699,-107.88781855099978,74.05410741477458,-0.5803136698593427,-6.554262943330046,-0.15330489610543124,0.1031353925103481,-1.8901911366598885,1.5192598828554356,2.846210378561358,-0.08854176876030494,-0.0004821991717401563,0.05873072836548956
1627411479175700,-108.53964658038316,74.04060351993208,-0.5709523746188347,-6.498728595092571,-0.11571851307941346,0.044531482339458736,-1.7814026315634597,1.52216440674693,2.95593821281237,-0.06705556514188307,0.031027750139361706,0.0306485187305794
1627411479275701,-109.19413115203169,74.02900282473645,-0.5659162993533637,-6.599346656564763,-0.1226567902782392,0.032762133585686325,-1.5999017832888496,1.5285129681230623,3.1361882062920587,-0.0419767946444692,0.0730605783482555,0.09885115447276235
1627411479375701,-109.85954718844287,74.01573872193447,-0.5647645586102247,-6.715087586186311,-0.11448088498489141,0.004048851134325764,-1.372196395716191,1.5360028064129287,-2.913846336847328,-0.09472871468698268,0.08820305834889892,0.06801993851348484
1627411479475702,-110.5387161862439,74.01091808296147,-0.561877296377392,-6.872982961387701,0.018525659327921946,0.061272154564332,-1.2759360276686045,1.5450908783730486,-2.8132458488207095,0.02118182411087541,0.1055655207582162,-0.08726354909437302
1627411479575703,-111.23254891927648,74.02001941631401,-0.5494685035662816,-6.9643881307503,0.14538300459252362,0.16538085227133328,-1.6224057163871446,1.5585659042826312,3.1237414420486287,0.0687841101351412,0.14079224796304507,-0.07320572796536942
1627411479675704,-111.92698601574655,74.04037242265173,-0.531611114265424,-6.920271688543294,0.24346726771479807,0.16864413216283397,2.476414416967854,1.5654875663227878,0.9407738942077892,0.005377850866841836,0.15633103970687226,0.0014637557058145647
1627411479775705,-112.61857590848203,74.07315006714752,-0.5185316674509596,-6.928171670841892,0.40142886736243993,0.08587560767107755,1.6120791993676564,1.5498171541533066,0.07994799141343573,0.019542783764039676,0.19566243875283795,0.04276869128607039
1627411479875706,-113.31324318151451,74.12319160207073,-0.5147396214099157,-6.970235263461009,0.5951943268247417,0.019309098130229414,1.4923503531276445,1.529246810688717,-0.03663470121295443,0.03649165166661464,0.21119563134623467,0.031062652351303496
1627411479975707,-114.01330990181052,74.19179341267488,-0.510877813003783,-7.046045693338419,0.7460417813658913,0.08889022564646053,1.493023490272392,1.5082327760469314,-0.03587453962566649,-0.016600833882720368,0.20203185788949363,0.004286391238815686
1627411480075707,-114.7223043159357,74.27343334289235,-0.5005573879063242,-7.1271116312257865,0.8918830098735594,0.09191494141786707,1.5684920964887044,1.4870090192929746,0.043217102187688906,-0.011507682000401505,0.21461003376061275,-0.11394664858842865
1627411480175708,-115.43554014228529,74.37297386826344,-0.4912308047498536,-7.096842935848177,1.1145931685271573,0.09711017483359304,1.6430077559126264,1.4639156507481157,0.1183046516874629,0.0058009413187139125,0.2259206425922554,-0.05375744876988497
1627411480275709,-116.14023121703747,74.49859838283639,-0.48003874900616383,-6.993711575954729,1.362120376862832,0.10306754153818193,1.6235691438337094,1.4409719891384172,0.09243340754297698,0.1964591006705574,0.23812771438235786,0.0002169119582112462
1627411480375710,-116.83909422795172,74.6414907286397,-0.4681901933251904,-6.990139363984574,1.4656613858750573,0.11227213920458722,1.5773030717366192,1.4166241153353492,0.04442583597378489,0.03916651267674949,0.2591865147544521,0.07529157983388304
1627411480475711,-117.53725985360312,74.79706663741685,-0.4586706579707115,-6.979472087388139,1.67158890674261,0.07720351614003874,1.5245540923638337,1.3895826650106733,-0.005759826878809227,0.037544421274061955,0.2718693190758684,0.06478991098272571
1627411480575712,-118.23842071758881,74.97904934273153,-0.4490827930831152,-7.05758383906023,1.9613567751890355,0.12847837656502242,1.5078309606000335,1.363379774429666,-0.030144323312207743,0.022801838333229015,0.24237932352403635,0.012004564069769264
1627411480675712,-118.9487820481602,75.18838343125256,-0.4357404928157679,-7.1502089944436715,2.200848231470723,0.17020218939687934,1.5321489909714392,1.3401873896181535,-0.012131605222754579,0.20545701066383573,0.24255756653701907,-0.01043051935452063
1627411480775713,-119.66455545165567,75.41553738770364,-0.4231982651508461,-7.161360502121494,2.3101121258680197,0.1086942606075991,1.5692267324325921,1.3146083381494873,0.01762585341924842,0.06962499748574838,0.26247320354295245,-0.11894028966051193
1627411480875714,-120.37997374755102,75.65357335613191,-0.41082391095158166,-7.150917278633948,2.430782311856007,0.13643023083262237,1.589371627756205,1.2887246092870845,0.03773043299423144,0.05792103608405003,0.23964902727527387,0.01047773038184596
1627411480975715,-121.09217400271653,75.90449705963829,-0.4003379610418927,-7.109686454776958,2.578226487576219,0.07885767854049726,1.5856223461642611,1.2649713523959312,0.03794072180295471,0.004217590486129543,0.22099058690804788,0.0166394643142508
1627411481075716,-121.80204409022303,76.17361127430883,-0.39487159078217665,-7.0982740516203915,2.7722698418817635,0.029057530623120827,1.5708476061622607,1.2429544053775283,0.023731916799907462,0.06265200984030538,0.20387746095960851,0.03136501160250798
1627411481175716,-122.51305130584976,76.46329692033576,-0.3893446110539691,-7.12301535850499,2.9899307273400044,0.010076427800618692,1.5566878156482007,1.2223732548165729,0.008286149983491836,0.1668878622051497,0.2096783334823568,-0.06466439257976668
1627411481275717,-123.22984828483324,76.77025003182688,-0.38179835144600127,-7.2088043249943485,3.125225173614143,0.12248904251995821,1.558088821057264,1.203015141617408,0.006384551659739757,0.026183376207420346,0.18447541662914066,0.028744838863781954
1627411481375718,-123.95257798811205,77.08985945379635,-0.370542332317207,-7.24837100454659,3.260412010124644,0.09475832017947111,1.5615716748943644,1.1850885713917085,0.009376212718476456,0.014864740680675047,0.16062485021101044,-0.0371339397564612
1627411481475719,-124.67949340689532,77.42501835596939,-0.3616011396072992,-7.282396667575387,3.422275357815482,0.07871566673719843,1.5724689483710126,1.16890734124744,0.01866701299420947,0.03070995535183021,0.15493148263103243,-0.04769769147799012
1627411481575720,-125.408966934873,77.77207201306834,-0.35218472015218183,-7.30806951628831,3.5137612628357093,0.1010252511436951,1.5752981890770643,1.1547320521350002,0.022351630067628216,-0.025229771972783494,0.13743148556204443,0.002034315054562694
1627411481675721,-126.14030019616655,78.12986652207506,-0.3427369165596586,-7.3195503390207755,3.6352219822697305,0.07181308186106601,1.5744186231635429,1.1412296293478417,0.02213683701824916,0.026344047355724626,0.1300988736962461,-0.012611882718793372
1627411481775721,-126.87391223408606,78.49989441854666,-0.33593693435278843,-7.3620484946200015,3.761065923653982,0.06929673515746422,1.5682773362337348,1.1289415567723748,0.01677233532504182,0.024703034527586355,0.11667895815684738,0.048924937788063845
1627411481875722,-127.61314845900503,78.88198379854727,-0.3303246134103176,-7.435026232889134,3.873016019556004,0.06990401458550083,1.5660894112576689,1.1178568886868112,0.015526971250892432,-0.012483505143218703,0.1048379775086497,0.00012475928748989875
1627411481975723,-128.360286412814,79.27448839480313,-0.3220924483901614,-7.508092043664977,3.9725066455937714,0.09679492865955353,1.5689521695400632,1.107702496146952,0.019999700136368162,-0.02277852796107608,0.09302436484072638,-0.00804320881472091
1627411482075725,-129.11323246737146,79.67739040860634,-0.31293760491969264,-7.544759638926734,4.092112099970977,0.08552139865615793,1.571889456071625,1.0989115557256661,0.025163459995243175,0.005252488347685251,0.0875874096514979,-0.014243220918811887
1627411482175726,-129.86920474331941,80.09144118956435,-0.30454783370013294,-7.5836790105049365,4.198507398520512,0.07811398466578197,1.5712913029929394,1.091501707877484,0.02445381237351415,-0.020498081694540628,0.06851596455831782,0.008691363004332835
1627411482275727,-130.63220459566818,80.51415995771649,-0.2969390727356464,-7.6920077627245,4.2644754359908035,0.11309807234405975,1.5687211923321434,1.085082768252685,0.023890652775426013,-0.12745031776690094,0.058534802662247025,0.08394226432787244
1627411482375727,-131.40347705028165,80.94253982140856,-0.2910922062255939,-7.736593002958864,4.324744598091613,0.05008557769061883,1.571442198571076,1.0793594250807421,0.02940582116402782,-0.046002807357767524,0.04902495002579028,-0.04629032554818076
1627411482475728,-132.1815685318705,81.38107320060332,-0.2842872341136031,-7.82009364040654,4.428235042528189,0.07175294038702183,1.5750032236985132,1.0744391847861121,0.032729199026270354,-0.0017495435208637856,0.03896114933682414,0.015509406936291973
1627411482575729,-132.96633618444136,81.82705683352383,-0.27711884666381326,-7.887141361483961,4.472719630550931,0.07362673280112914,1.5740839865027942,1.0696650177145905,0.03477260254604198,-0.02377060700036354,0.04243588165581548,-0.009436831413710326
1627411482675730,-133.75829410161617,82.27925409948841,-0.2703448128702506,-7.950296025162171,4.566282293752957,0.04687468177906873,1.573902163778121,1.0649107314529085,0.03783405904392994,-1.1053133563853842e-05,0.044475427060880604,-0.030493451304101478
1627411482775731,-134.55612867834452,82.74298121172103,-0.2645726856937743,-8.001803904145667,4.700678721787609,0.05461172008684487,1.5740467950648696,1.0605362531558171,0.03808166286597701,0.04184582439124793,0.04435859986944607,0.0045298036570023785
1627411482875732,-135.35872403776247,83.21863157767343,-0.25815104720094134,-8.054715924084958,4.8044866682574305,0.06400005243206144,1.574022083737158,1.0564602873537696,0.03613811538819259,0.015602479494291605,0.03901705201681545,-0.016878707161263846
1627411482975732,-136.16767052123913,83.70297267644636,-0.25055141241327167,-8.12020721501659,4.88117384844268,0.07583476280307662,1.5733856439454266,1.0523339196862835,0.03388810913415366,0.012208612482992405,0.037980663722507614,0.016989393176958422
1627411483075733,-136.9826544251582,84.19457234995055,-0.24306307895101453,-8.181089284939834,4.94256171507291,0.06322206933834583,1.572313659417743,1.0493646517275004,0.030007330897530167,0.025116099702162577,0.015479654779225298,-0.023295399174248745
1627411483175734,-137.80490346896045,84.69215432372211,-0.23488570724218327,-8.267150095058284,5.013711081100423,0.08872917236408535,1.5705715473006805,1.0476083263966018,0.027476251758015213,0.013666957022638192,0.014095787974828484,0.02546646063553664
1627411483275735,-138.63540782769238,85.19648330848817,-0.22796155782509792,-8.351402647023884,5.05842876455273,0.0713855304358282,1.5717439474868526,1.0459783865748633,0.025397604549790818,-0.009001417032710157,0.006863370479197793,-0.011785307084120239
1627411483375736,-139.47597325441708,85.70312652656582,-0.2201846668039501,-8.462491099937049,5.081709208735977,0.08575006131274143,1.5733375702064196,1.0448487814251335,0.028538919757935315,-0.020769318252762726,0.014667912402480708,0.00024798605310701364
1627411483475737,-140.32800775233488,86.21530101998077,-0.21569429325345474,-8.565378153913393,5.169279336088339,-0.011324248599167013,1.5793248762132894,1.0433455027372123,0.03608962372098981,-0.004126899875927983,0.013469871468734624,-0.07831087118983283
1627411483575737,-141.188895303735,86.73614706712175,-0.21711812435933114,-8.60237579187438,5.223666332054157,-0.0789740402359688,1.5935015447609138,1.042230393927107,0.04915129789516078,-0.04023212955308836,0.006677612843296403,-0.2063196775235667
1627411483675738,-142.05391458464126,87.26221395039806,-0.21710725615172627,-8.662482282288872,5.284998165104453,0.03200216182783933,1.602402022424898,1.0405745599603844,0.056645485055533386,-0.022286453825503198,0.016116545485289138,0.05200685490978504
1627411483775739,-142.9180884966068,87.79064715760629,-0.21682060684187943,-8.62267322665598,5.2943832732078775,-0.05285387462263642,1.5918371186128757,1.039444344921985,0.046572092787806406,-0.007689144008241233,0.01797339318553609,0.00602227238265218
1627411483875740,-143.78581363409444,88.3242686368673,-0.21775508112017214,-8.723879551722112,5.378040631253044,0.027964789639221166,1.58579652052518,1.0383359528703824,0.040520471713406864,0.038238560722955325,0.010412557328362416,0.04669775363255998
1627411483975741,-144.66189632321598,88.86637397912273,-0.214850264914207,-8.809558324583275,5.447790896538483,0.03562087299378661,1.5817014610696678,1.0375173779988063,0.03399622471853461,0.05465822570005004,0.006595838308192029,-0.005814698901269396
1627411484075742,-145.54750569618332,89.41270532245116,-0.21180591175017832,-8.897219670805782,5.473016115678405,0.024829573724233413,1.5877267921002494,1.036360993163048,0.03918524080006184,-0.014137711613293085,0.010525501029574197,-0.03278488358586443
1627411484175742,-146.43995168920918,89.96238143865106,-0.20978827764499647,-8.948850277807015,5.51758847630637,0.011435422515879019,1.59137163175047,1.035045029005232,0.042073915824258776,0.010512483699722446,0.01341508258609171,-0.010252867327162435
1627411484275743,-147.33716222079772,90.51478222990116,-0.21006867748627567,-8.988018012586242,5.534462732495499,-0.014870504779190073,1.5939579922404605,1.034003067149544,0.04533269094507232,-0.027924938071552472,0.010243815188798475,-0.01703407551025142
1627411484375744,-148.23974683290777,91.07071794155986,-0.21179635320941098,-9.055940306215641,5.589762824415345,-0.02770065015696616,1.5928532358990823,1.0332026342621055,0.045004571398626396,-0.051556185141205295,0.009489212154770443,-0.0006658258800199732
1627411484475745,-149.14851715141697,91.63024824794327,-0.2135904901472624,-9.103361517838117,5.627081854488919,-0.05198809987394548,1.5915472107834483,1.0327727017277588,0.04653779610335837,-0.0499740613128262,0.011232176654783895,-0.06026728389704934
1627411484575746,-150.06364724884125,92.1975109948624,-0.21722357090586503,-9.182451140345034,5.722631155495801,-0.006910349672270904,1.59667646650836,1.0322031210778593,0.05030763408889817,-0.043894182891167796,0.002337632835990127,0.0449199733762736
1627411484675747,-150.9817604845297,92.76996889275708,-0.21944364772992975,-9.184775045629939,5.719577375181692,-0.0338989159610626,1.5985151599584715,1.0316551431899754,0.051220805889740456,-0.020270342130242442,-0.004523113264034668,-0.07007821922739252
1627411484775747,-151.901757699932,93.34314366033648,-0.21731043837959949,-9.222320809516845,5.721797627657585,0.06210772300230279,1.5943399638202351,1.0313012279571112,0.046964331271131365,0.05616146782154429,-0.007339978643798623,0.12159079328482884
1627411484875748,-152.8254173692556,93.91661967594102,-0.21520691851782808,-9.277832851926945,5.750076238757754,0.013849422824325056,1.5842450135892157,1.0315143921097611,0.03849047796348656,0.004272980348598354,-0.001383141884460204,0.007800234716928538
1627411484975749,-153.75750289188267,94.49399987959336,-0.21185765519324695,-9.355443234400296,5.789082278431496,0.04556280738088291,1.5829551971774543,1.0321037537198485,0.0385480593665793,-0.017988602045821474,-0.003190614345816992,-0.016230292594607253
1627411485075750,-154.695853153507,95.07469366447229,-0.20634060665115186,-9.388616011408288,5.823392401933522,0.046462788627374046,1.5868601022096764,1.0320473801944543,0.04368195955130677,0.009414005122307022,0.008269901604569791,-0.03415933820525507
1627411485175751,-155.63535448688407,95.65796932507854,-0.19914758456082743,-9.403608077408665,5.843836760878424,0.0804803677984737,1.58314484962317,1.0315806465894288,0.03910965644613914,-0.0016236912520955148,0.00643488419452216,0.05082257749172526
1627411485275752,-156.5769484474428,96.24320190887833,-0.19268652733655675,-9.428233498274004,5.884939337629497,0.05181926581292388,1.579161900001141,1.0312876504963513,0.03540605531825654,-0.013918672055774961,0.010089856627864971,-0.016483276940716208
1627411485375752,-157.52283098594697,96.8350394834146,-0.18667277918573028,-9.480040463430063,5.948221710413005,0.06677608556586531,1.581174717112076,1.0312682432473523,0.03428019120947344,0.03646861155485048,-0.003323454541044538,-0.019925844687380415
1627411485475753,-158.4717428831748,97.431036474985,-0.18031193195796064,-9.498998882625793,5.961220980384642,0.05034525433632935,1.5880833166241235,1.031072302128937,0.03625882541910611,0.03672571181071507,-0.001045489229700802,-0.04298610152694328
1627411485575754,-159.4232694195035,98.02793905532813,-0.17643975865889977,-9.538347681722934,5.993348427538543,0.01944909302392816,1.5912337246584727,1.0304254145700849,0.03719664751929168,-0.0010861425017403908,0.0055417009582677925,0.00022652183499205308
1627411485675755,-160.3779450621649,98.62931241648505,-0.17757312317624338,-9.565576545160187,6.0229108361965835,0.020609520096656196,1.5971500240429901,1.0291756177680547,0.037631463792535014,0.04943545098095943,0.003473106347290665,0.030256124146008243
1627411485775756,-161.3338717444074,99.229788950366,-0.17673222375144695,-9.556039446709342,5.987077987999594,0.030149748501240255,1.597119891902336,1.0282233510676169,0.03627177516552668,-0.02508536626510722,0.01080798853587435,0.03168962499737239
1627411485875757,-162.28817400661478,99.82761859308805,-0.1735225635410359,-9.547441760719867,5.996328245911927,0.027061622476314245,1.5865322442552716,1.0271578728639341,0.029206480095339136,-0.015632757761400155,0.01053715404737403,0.05024277760880033
1627411485975757,-163.24434104946783,100.43132242508675,-0.17013472431333448,-9.589642158318883,6.077158066623816,0.04634063412118103,1.5826864883530594,1.025701205644508,0.02457893829295955,0.022903004266905648,0.017360594421685294,-0.017385479142982465
1627411486075758,-164.2054520827145,101.04174853530374,-0.16432567368186995,-9.623099960519891,6.128509166819822,0.06649445818723404,1.5914066112428495,1.0239504669346056,0.03119363663584307,0.018192780606958243,0.01917912276831768,-0.04810804915081559
1627411486175759,-165.16636303810338,101.65425797469213,-0.15957587832629716,-9.592099607062096,6.117460309401443,0.03012461522482388,1.60028320768272,1.0219038661199942,0.037420630068313684,-0.01472688268045911,0.014896234324265978,-0.02709329156340454
1627411486275760,-166.12365007515808,102.2658708493717,-0.15875281944578432,-9.556766483157443,6.124466487144367,-0.013548833610002023,1.6013983356838768,1.0201852263224565,0.03797376196489505,0.010840306785946162,0.014009138840241,0.008463428610554512
1627411486375761,-167.0778098693784,102.87900047697416,-0.1606768324134215,-9.52831641519607,6.135688138705171,-0.019210089916374365,1.5980435603892735,1.0187177796372917,0.03346042711180313,-0.004382637148565613,0.011378529176594855,0.011738558830227439
1627411486475762,-168.02992719482333,103.4939861154549,-0.16076233757566566,-9.514188298553828,6.1656828643381605,0.006597568678409026,1.5934448735503577,1.017174585163799,0.027511941969826943,0.024536154847059427,0.01816843136990242,0.022060676282216998
1627411486575762,-168.98135509810552,104.11264166640908,-0.15935516971806454,-9.515366971587957,6.224524743407388,0.01585978921683614,1.5891831756739894,1.0154274225432052,0.021784339956712948,0.03039967674464205,0.02120468587326609,0.004092932446402551
1627411486675763,-169.93260876291464,104.7390435379699,-0.15770397370895864,-9.516800942122893,6.286049789810419,0.03340563920931162,1.5935284797658187,1.013183160916039,0.018787194710700915,0.08379459404068236,0.018549353777705804,-0.018154310105103134
1627411486775764,-170.8829208757713,105.36739547894231,-0.1544290191323608,-9.490665870897713,6.2748080477655765,0.04813577168370639,1.5975443684977715,1.0111985689005574,0.018167714174660586,0.05955603596398967,0.012223253022476935,0.01861776194864032
1627411486875765,-171.82883968261262,105.99446199348944,-0.1511168730267764,-9.443270075322516,6.260076727630889,0.00993191265139744,1.5945727682282782,1.0093374030130506,0.010664520109688047,0.015064301263599082,0.023333096408429867,-0.000872736005244343
1627411486975766,-172.77607815071616,106.61941916246174,-0.15026491246638618,-9.507081244615874,6.2555109637845545,0.020902945462200017,1.5916434108941133,1.007631276934181,0.008789635022121139,-0.039302071878729083,0.01971907920379648,0.028738392595759173
1627411487075767,-173.7281240498634,107.24388052975073,-0.14935774151039283,-9.535212062906032,6.23210486723371,0.010004838366214032,1.5950736389443636,1.0052567497700298,0.014731666319666955,-0.04980647323697411,0.02883994001696157,-0.03291564265981732
1627411487175767,-174.68020351324557,107.86507156131177,-0.14792343815006287,-9.483200730882055,6.197604687534186,0.016233419207693337,1.6002045625919643,1.0019750613343301,0.02645665369981962,-0.07013747949690452,0.037724550064091776,-0.017659326802944304
1627411487275768,-175.62522747798835,108.48651960899886,-0.145775330415791,-9.396978544012695,6.209708135059781,-0.06934349186208325,1.595608175048245,0.9976713647320696,0.02794569746428915,0.006226075013223842,0.04762047643283651,-0.1147358694989196
1627411487375769,-176.56591893711217,109.11236418308842,-0.14362943355144547,-9.401950169766913,6.312452432405607,0.07465569721401807,1.5912505046604448,0.9926441095951869,0.03202854661514615,-0.02223318179310883,0.06112832443738513,0.10052717115553907
1627411487475770,-177.50072076294947,109.74864698330754,-0.13745092263474,-9.306179028591426,6.4118006716977325,0.05112624430061016,1.588568386701476,0.986894862319741,0.03168778890946462,0.04955133958387558,0.06694730535428899,-0.05102046733337988
1627411487575771,-178.42779638912762,110.39419212071554,-0.1310910179083232,-9.23732693813083,6.485198557525008,0.05542484203426135,1.5906176724024472,0.9803401240706725,0.032235680970781035,0.07679202725264184,0.061100898273596556,-0.008521053406360758
1627411487675772,-179.34807620016358,111.0467961753153,-0.12469568693080853,-9.173191068016232,6.554668266842595,0.05973195296082352,1.5899944819946144,0.9735089575170894,0.02937812880838985,0.0034193617554928056,0.06616388256201304,-2.6058319043426572e-05
1627411487775772,-180.26097535792584,111.70494057571501,-0.11921670225100413,-9.090072301113924,6.606863316787233,0.05919122548540064,1.5901268497079888,0.966723263326795,0.02758703094176013,0.03060200791029016,0.06514047256622274,0.009764157483291631
1627411487875773,-181.16604221069142,112.368103211468,-0.11331974243046533,-9.01313957439188,6.661500092020774,0.0664318877975697,1.5872566162707566,0.9596607208842083,0.023424209279432853,0.004122868816621935,0.07856851622073355,0.028976639949483428
1627411487975774,-182.06386518827935,113.03643854716043,-0.10713482471482148,-8.948079319380579,6.70700454864126,0.06669371638015477,1.5850341836139588,0.9516826729156613,0.019924375244947168,0.005132328315702163,0.08464369326913913,-0.0015558118477273478
1627411488075776,-182.95557973037677,113.70969041727595,-0.09913834861717243,-8.882366266467974,6.766857490900565,0.0826374610356905,1.5845383953674588,0.9428109899928704,0.02009531116143906,0.012599044648084874,0.09758554203479027,-0.005891143487917569
1627411488175777,-183.83908365917998,114.39062091021809,-0.09212870812346288,-8.780555750605155,6.85881064153258,0.06363971050438125,1.5879271894162759,0.9328283177828232,0.022361317860524182,0.01911571643270257,0.10479448305663237,-0.025239296938830258
1627411488275778,-184.71114495829224,115.08105627495827,-0.08657481658686254,-8.653717238208962,6.958242997705188,0.05607489582191066,1.59264544856548,0.9214844399760308,0.024511817394601156,-0.05100043548445043,0.11986809955311006,-0.018278127063824298
1627411488375778,-185.56926989593765,115.7802813810054,-0.08272056484978671,-8.493601828210538,7.04179563264213,0.034691168770755995,1.5953475372766515,0.9086028953211069,0.02489895683687613,-0.026139976635316545,0.14381413338461344,0.0007458812585936385
1627411488475779,-186.41064071593263,116.48834812165296,-0.07970262966674214,-8.334748552301145,7.126770008486,0.03970721012673697,1.593038339509511,0.8944669053782235,0.020605918487003872,0.034242557862855225,0.1469043437231407,0.024585235329830264
1627411488575780,-187.23633227518448,117.20763467943965,-0.07778178145899126,-8.194071785308198,7.2431610840489205,0.01448699364868429,1.5925403609773618,0.8800037954944955,0.018868586972058902,0.18670946979401554,0.13769715056461065,-0.001733174863369572
1627411488675781,-188.04873489597634,117.93901906076272,-0.07492812811839214,-8.080425225070696,7.35907595885952,0.032014149943107924,1.5911649703722313,0.8652381106464191,0.011402661659548482,0.0772774250294804,0.14407892685821,0.013284904845742001
1627411488775782,-188.84933618825787,118.67851521428747,-0.0718849114981345,-7.927333040964878,7.433210022900775,0.011343134190528657,1.5942768171317807,0.8496836277119265,0.011830936300702503,-0.04909487513461092,0.16303303259422253,-0.060256203311498883
1627411488875783,-189.63552248198278,119.42480010269648,-0.06871817378287887,-7.783013875280313,7.504491720744222,0.04879908083720213,1.5935520758590116,0.8332541828641867,0.011813862441836376,-0.0752519092269037,0.17163251052732698,0.04961271895550663
1627411488975783,-190.40585889483123,120.1788096739844,-0.06624911120763785,-7.616363997317542,7.5939565749908375,0.019035087485959046,1.5913865476936395,0.8165402152989132,0.009884352061992565,-0.024920221583560276,0.17459236965089162,-0.005041827875641278
1627411489075784,-191.16080489005043,120.9428119588037,-0.06359362666961363,-7.473969446945881,7.6932557249644065,0.04411978966995277,1.5887428070854752,0.7994749271251755,0.009022601620670439,-0.03001921651738612,0.16628611970177848,0.035768591285211336
1627411489175785,-191.89953972546732,121.71730721969686,-0.05913962107671949,-7.300722334646239,7.8018945271516955,0.05985285058818385,1.5870238637376395,0.7822413240345238,0.008603786115438978,-0.029138060943137194,0.1741256786921236,0.016125484560454886
1627411489275786,-192.6197905754229,122.50387430068538,-0.05289730816273809,-7.106728754180598,7.954164002212061,0.08900893994879878,1.5841973807242575,0.7647332019289952,0.006348947149160521,0.04425520750190887,0.17607527059314665,0.07361852664057306
1627411489375787,-193.32247211457576,123.30321137122394,-0.04535688753076191,-6.969694952954105,8.052023869873185,0.09274600169962126,1.579295537791767,0.7472276493169536,-0.0011022411392005026,-0.1531362926011897,0.17074109052291475,0.048709072719972095
1627411489475787,-194.01373709411703,124.11075193962718,-0.03894673632618004,-6.824599682927738,8.135596930113437,0.072260635877324,1.5818945168817737,0.7293005989685059,0.002369867344885049,-0.15223023157540214,0.19026258665464257,-0.05263362870280788
1627411489575788,-194.69086897565776,124.93035866549138,-0.031099003747262835,-6.720988357627655,8.267154682804781,0.13528857312191025,1.5828321792393136,0.710267271512149,0.003176481388049099,-0.03471381343251372,0.1773628833473058,0.10719037608861978
1627411489675789,-195.35255636073458,125.7616386306091,-0.026508709917602583,-6.533548471973705,8.369586363262387,0.03488373927062588,1.5853740325252739,0.6891609233801533,0.0069587390292318,-0.030347252558284396,0.2047309393775128,-0.03864068625492948
1627411489775790,-195.9949750434004,126.60479115399994,-0.02292982218977803,-6.311990727050383,8.491053915349477,0.03458347051382879,1.5879162007175138,0.66762601308458,0.0127885070168967,-0.020440115478327348,0.2171338619586395,-0.007235904835551114
1627411489875791,-196.61403285370508,127.4604452104584,-0.019621579443123427,-6.067203074496175,8.631333937991375,0.04288473729352062,1.5866215528322478,0.6460091033269222,0.01407729619808471,0.004983437481731985,0.21827047826000978,0.045932133064685625
1627411489975792,-197.2090018685297,128.32959144323615,-0.01633083457592152,-5.843123262901184,8.755571104606407,0.04128609125534708,1.5834637042912372,0.6252781972335514,0.009987337140335374,0.027803180389386273,0.2048312822692094,0.018064027995752952
1627411490075792,-197.78452865033017,129.21057506026142,-0.01103158563935859,-5.664866264967506,8.867250965350344,0.0571566304271372,1.581240865748329,0.6053751252429277,0.006582462662403752,-0.000351680262269415,0.19284081617339516,-0.00026451062713847085
1627411490175793,-198.34276002436593,130.10339437745318,-0.005887325856392345,-5.512199134821841,8.99311528413905,0.07940851091966089,1.5816924986584857,0.5861789626795981,0.002273926952726708,0.021862175087551616,0.1862134057896666,0.04317452552436399
1627411490275794,-198.88687635485852,131.00647213676282,-0.0008060876157519464,-5.366802789292617,9.07542806507312,0.03499392055877691,1.5829775431460065,0.5677970911556903,0.0016072512717767073,-0.0029495522268607657,0.1832541923150219,-0.03713818694188483
1627411490375795,-199.41565446289732,131.9176260484367,0.002531203017901662,-5.2037655372000815,9.145044348082509,0.04850567645232895,1.5867502831414706,0.550078120260931,0.002524170553716339,0.0005975266724035997,0.16952726206772578,0.001733733176709157
1627411490475796,-199.9271813151071,132.83434158777035,0.006462618455177677,-5.026298691947709,9.194030356864156,0.030806220796736068,1.5851112521844992,0.5332551627122422,8.948223046097948e-06,0.020131665141565117,0.17016660758226967,0.025791176123977414
1627411490575797,-200.42220722877238,133.7562727191116,0.009697477548329392,-4.8713013575289015,9.253699078147328,0.025326861553142826,1.5816034153183172,0.5172304388045067,-0.0036129308530376625,-0.0008802262717246487,0.15968977566668321,0.012233332739601059
1627411490675798,-200.9035882070863,134.68664691083694,0.014053247553422271,-4.752674649388764,9.35701879464476,0.06365918473405542,1.5789720417284245,0.5018093564483566,-0.006135070163600377,0.0016281972580352122,0.1504531262833371,0.02994765875905953
1627411490775798,-201.3735110355398,135.62641283128406,0.019192338884492108,-4.658954819724212,9.435983471900961,0.026991682085661748,1.580200455178524,0.4872828830748237,-0.006339281288122602,0.010302626472147889,0.13882565209385953,-0.058524702129922744
1627411490875799,-201.8318517532452,136.574196695295,0.024633345296202133,-4.527436547435842,9.494997647260792,0.06392681303457455,1.581518982939283,0.473674937327128,-0.007434842285792862,0.19412823857442504,0.1319771829375128,0.015997231430625904
1627411490975800,-202.27757765645185,137.52375720087193,0.030704907744890583,-4.417075779941735,9.484841737024356,0.07990068632384707,1.5818966063125934,0.4613337260231102,-0.007059142271323616,0.06492132892918262,0.11338086698792875,0.02658538700701567
1627411491075801,-202.71351266592998,138.47396183646774,0.040192840980005445,-4.320034977468625,9.521797155424066,0.09597838522287865,1.574509865912736,0.45003745818839186,-0.008305074965615132,-0.02030281275045846,0.10384209850897867,0.07715317421390121
1627411491175802,-203.1407090253298,139.42950374503872,0.049959843548272556,-4.245321670023468,9.588937576851553,0.0996809947010944,1.5709382248918093,0.44052417061164373,-0.009454574386532189,0.023560990510290914,0.0866221748491594,-0.023255330199911127
1627411491275802,-203.56276443001073,140.39293422892035,0.06253512868660571,-4.200264761219257,9.66687108845824,0.14312511917243798,1.5721740295648399,0.43233654792320353,-0.00870567873424086,0.03449939902350404,0.08068661061676063,0.005052723792730658
1627411491375803,-203.97947297050914,141.36050168473352,0.0755487046757563,-4.137702407219324,9.676266620453344,0.11312465804536213,1.574865396109919,0.42492042114544076,-0.006638990671198113,0.005294490962971534,0.06794519396335401,-0.037330627406043065
1627411491475804,-204.389611246321,142.32840139130616,0.08692207842536538,-4.071295205936266,9.679879393121048,0.11708438717857873,1.5758533867953302,0.41850866347156696,-0.005574839564867892,-0.002596715986228354,0.05667645854367377,0.02266624849660471
1627411491575805,-204.7944460797511,143.29633633343803,0.09754412615123098,-4.029648660665091,9.68531169505313,0.09559383735577118,1.5738005956961996,0.4136832147068115,-0.0056447945448283975,-0.041393588624451826,0.039540060974377254,0.007113072702594826
1627411491675806,-205.1960971199261,144.26652003367843,0.10730997206531362,-3.9995429491562895,9.72238552977082,0.10520942923716226,1.5731792243596254,0.4100132299468565,-0.004001660617534027,-0.006610437901491581,0.036302239761031196,0.0024632482890451076
1627411491775807,-205.59464689511003,145.23996034643923,0.11801585643731394,-3.972128418468138,9.736982419403644,0.10740622190977205,1.5744765632829942,0.406427307520924,-0.0030587664031003253,0.002014316835765302,0.042334224387407506,-0.023563681795127474
1627411491875807,-205.9906896738891,146.21286271351454,0.12954335873160938,-3.9415488627260817,9.716482141849964,0.12326953204186036,1.5756543464579327,0.40252046597526403,-0.0006517160194936964,-0.005040833831873057,0.04056129543206293,0.006701282808371617
1627411491975808,-206.38112072038354,147.18418341985006,0.1421524775949455,-3.865395117240947,9.714846307610737,0.12489804902183833,1.5735305086665319,0.39868106187158137,-0.0005846636312399785,0.011832424488471863,0.04201628528658604,0.024983789036549412
1627411492075809,-206.76507571228518,148.15546047538535,0.15515703299361883,-3.818470998565902,9.69751401997485,0.15110727997188814,1.571197485226187,0.3954274773238251,-0.0015225003410201396,0.009087988144455187,0.025850879211977786,0.021147594203744235
1627411492175810,-207.14620592593775,149.1271248349277,0.1705090292633158,-3.78786021770481,9.73720614969589,0.1220198458127775,1.5700044669211501,0.39268017137376027,-0.0002531707868371507,-0.06819272856386666,0.03298821960105073,-0.053414401415265864
1627411492275811,-207.52444932226163,150.10348092214082,0.18286713220581274,-3.7672971878487993,9.775210217664485,0.12632094986730516,1.5736824737876158,0.39035448612306217,-0.002365336408910643,-0.0015251735864612753,0.026697802972559057,-0.024562801832474564
1627411492375812,-207.90145238090966,151.07951243225406,0.19605646823272332,-3.7593135692416966,9.726283132938057,0.0904189762854707,1.5790424737180175,0.3882297341926381,-0.0021934651957860214,0.017343805833359482,0.0240904325473019,-0.10304030674864076
1627411492475812,-208.27508901749206,152.0485490935349,0.20683685618250008,-3.707508137870189,9.658853230971124,0.12689177183645786,1.5802071845583867,0.3856131832038788,-0.001954982476669914,0.018165336097020247,0.027295889276278643,0.06507279488271794
1627411492575813,-208.64369031003474,153.01179055867715,0.2165467487611506,-3.663228697928213,9.61879921916519,0.08012963395688676,1.57579467907035,0.3834086450161433,-0.0030557214090137994,-0.03527858022971466,0.01757591530584346,0.015507114554842336
1627411492675814,-209.00859935989337,153.9740600891428,0.2260323308365989,-3.6319794217350077,9.633706791624206,0.10597171296191728,1.5739289434518642,0.381479107384618,-0.0031812432523648207,-0.02516640482951574,0.021730501602374275,0.011042915843188023
1627411492775815,-209.37156558934973,154.93766426423076,0.23731268755092483,-3.6280806635053566,9.63044464833693,0.10757561482420545,1.5748237176769706,0.379461189061912,-0.0034306588574615103,-0.0028148911865457787,0.013592645521296609,-0.035660531199349504
1627411492875816,-209.73280379138419,155.89997364688176,0.2484071555699137,-3.5986410127548063,9.612277600860525,0.09781616160016537,1.5778653180207092,0.3774633904373913,-0.002096649324370185,0.014096889542694663,0.01946658870500771,-0.034879662304969375
1627411492975817,-210.09003386164605,156.86005143454614,0.25665711580956474,-3.574179753064821,9.597614651191913,0.13491057090813327,1.5808807320521787,0.3754133086790504,-0.002812066247439711,0.07805989905899109,0.012887632942002248,0.09422204067866337
1627411493075817,-210.44463474590603,157.81451627634442,0.2648352308984323,-3.5341442522085145,9.502418747244905,0.05656547872575047,1.580223097224192,0.3738634969198009,-0.003191108046889205,0.009737632987572518,0.010503509694890075,-0.040277847170150705
1627411493175818,-210.79572822777345,158.7633382719281,0.27225032183426096,-3.485229069267628,9.478908004966605,0.11369881695161017,1.5801186705190025,0.3728695181346694,-0.0034249491169468095,0.021548268905300906,0.008285961214435896,0.07198316108760122
1627411493275819,-211.14268353904433,159.70960830560068,0.2813839049780975,-3.4567175753592565,9.458938120340873,0.09507308274789647,1.5766732367137268,0.37251059058432834,-0.006869380171445824,-0.025669672751368354,-0.00036645702918405843,0.017146686688417397
1627411493375820,-211.4883685309709,160.65406683723495,0.29019287670463206,-3.457041906814198,9.434103734255805,0.09908574103248972,1.578119947620518,0.37242854768615574,-0.008648852698882761,0.011447473634309308,-0.0023228394683415094,-0.014253165832898101
1627411493475821,-211.83523305505312,161.59557019693372,0.2997062699346682,-3.473894031854747,9.397854802790077,0.09504721072300609,1.5793468947151565,0.37390542035029267,-0.010810784464656636,0.03446309887253606,-0.018406572366722117,0.0004263141809770008
1627411493575822,-212.1840566872147,162.53187020280984,0.30696192436118586,-3.5058910276185924,9.328812697919382,0.06328185530397597,1.5814743387942976,0.3780011875461966,-0.01346612397222567,0.04372553448812143,-0.056661817892330296,-0.01692790262060275
1627411493675822,-212.53762301440054,163.4609651155928,0.31323024585725123,-3.5789890673663116,9.245354044749876,0.0653186772341192,1.5818976098762143,0.38466741687689343,-0.016475967150701307,0.029636819983692306,-0.08012268414516895,0.00813954500631392
1627411493775823,-212.90022222514654,164.38034679952514,0.3194805989134759,-3.680258459777599,9.144073989124452,0.0628826250571879,1.5812182269820068,0.3930644476225439,-0.01788055709788566,0.0013520561486806723,-0.08986460655370465,0.008261422804187188
1627411493875824,-213.27449602773288,165.2905196364628,0.3261204294226311,-3.8073570805998855,9.062907353020126,0.06781608812392373,1.5798012455977437,0.40309037636332945,-0.016983587300298735,-0.019462871170408992,-0.1071003920603837,0.00843934328292232
1627411493975825,-213.66097758439824,166.19214112297414,0.3331751611282197,-3.918850408493236,8.965793686606617,0.07318472981760904,1.5801958752142207,0.4147005448459714,-0.013974262322737725,-0.0024859944619793502,-0.12902999983449637,-0.02110478159651135
1627411494075827,-214.0561823640815,167.08665696442606,0.341258195922495,-3.9908822251180838,8.937159961414748,0.057291392920272285,1.5809718506656143,0.42767528202329047,-0.013341124078726738,0.0157092592251882,-0.13465361518118665,-0.01645707157778654
1627411494175828,-214.46062154146284,167.97701269165822,0.3436934589251901,-4.123095283133181,8.851917236422779,0.016749046568868043,1.5849756839884566,0.44225787989989845,-0.01473534909725727,0.05329156283478331,-0.15800993462032273,-0.03934002780456571
1627411494275828,-214.8813444693718,168.85371812993205,0.3458805972303603,-4.304401990528623,8.662585817817819,0.04327781958797776,1.590919679987832,0.45834166686833927,-0.012524594146062827,0.00031882943095174604,-0.1691422530577877,-0.054743106336962534
1627411494375829,-215.31813763921966,169.71123860395107,0.35205236552804786,-4.431298348039666,8.49168658780833,0.08453831920330161,1.5888960226588313,0.47631450883347565,-0.008646665927168921,0.009006615664345885,-0.19511099152471328,0.1165266238961072
1627411494475830,-215.76563090240072,170.55224925422144,0.3557134881878006,-4.553823371566736,8.349827238102915,0.030524906685021707,1.5809695790254306,0.4967016339032287,-0.012242448933768376,0.03404945399182241,-0.21252856893920216,0.04765289453653837
1627411494575831,-216.2329651886581,171.3833329225812,0.3602202869286634,-4.797334348893539,8.27350593578837,0.06287146152673315,1.5784881490702907,0.5182785068171283,-0.011113919869149816,-0.06113361464578407,-0.22029528714732488,-0.013436583859675118
1627411494675832,-216.7254680983247,172.20437410166952,0.3658341221909526,-5.055794420542019,8.131787466298485,0.03291336152554483,1.5852208809616333,0.5411043229701111,-0.004090381327832024,-0.06695693471533722,-0.24417045051073236,-0.10892235466933335
1627411494775833,-217.2395817225765,173.00920943265777,0.36969906408908576,-5.189573167910453,7.975416981157526,0.015821488376915396,1.5944713493732874,0.566614274496291,0.006964494844713424,0.10611348796018033,-0.2590100376373807,-0.05769835194417137
1627411494875833,-217.76106720222742,173.79812204066602,0.3701411315145835,-5.261443504551978,7.797185815628406,-0.015418120206137153,1.5972372711359382,0.5939386321312855,0.0006873861525954617,0.058280271613206584,-0.284779547247989,0.013987104588502003
1627411494975834,-218.296811486331,174.56528413675485,0.36641402720017596,-5.456727257704148,7.533445801782694,-0.06452145543259198,1.596039761051185,0.6234797810833144,-0.0033990569318174575,0.030839670397994703,-0.3074192395754331,-0.036112200402692515
1627411495075835,-218.85461224722567,175.3094048179566,0.36412071781363214,-5.711826142287693,7.349426901919433,0.08027945590285086,1.592102996257709,0.6537103555734559,-0.007863844427702334,-0.03335583373704235,-0.325060168854262,0.15837626729385373
1627411495175836,-219.4380403649899,176.03084693403738,0.36487350989460055,-5.973836382724357,7.095424283108261,-0.03363233502909403,1.589429214688871,0.6863339873463573,-0.00769200138907223,-0.0527630030069168,-0.33384815314458616,-0.08211265807960233
1627411495275837,-220.0493683110956,176.73111138488903,0.364289391202716,-6.24716145111776,6.89679823505631,0.006698136645386771,1.5948518143034662,0.7187391450631944,-0.0009207013996675081,-0.02966381158852878,-0.3277870351837725,-0.03019398285401259
1627411495375838,-220.6865687088432,177.40722743926372,0.3626069088234527,-6.481068556228239,6.615036655230777,-0.040973651065381436,1.604037972793321,0.7509058636521925,0.008750269925812109,-0.08728623542260873,-0.3217057799396957,-0.09415465490099383
1627411495475838,-221.34375304112544,178.05494192636755,0.3578235109513992,-6.645338302095842,6.33521561376617,-0.07134580656219479,1.6124052318257565,0.7833235098952129,0.02040941812422262,-0.03591972407189992,-0.32447882386213256,-0.03367448820530659
1627411495575839,-222.0177136349202,178.6743744973911,0.34907723358066567,-6.821707056292159,6.0657043447879415,-0.10550832040445328,1.6136970631910021,0.8171032677847402,0.02970323829519014,-0.08413819440642828,-0.3331332776882495,0.011753323377518967
1627411495675840,-222.7077789684732,179.26829825319413,0.3367073868677223,-6.976794898532972,5.820055451031531,-0.12437195895401637,1.6141136447058142,0.8509412201220533,0.03493275815810849,-0.015625011708899905,-0.3326178949933986,0.0036329074537766546
1627411495775841,-223.41041104345638,179.83968893254539,0.32740307210949926,-7.073051913318985,5.604110093900978,-0.046514120865726816,1.6127930282597525,0.8842893598308494,0.03576986531064254,0.0877335186390836,-0.3251827237189801,0.06043310305616318
1627411495875842,-224.1248698591158,180.387136883879,0.32175212450094925,-7.228075635307864,5.32548441190223,-0.07959534830397892,1.6081279550168537,0.9166496821900384,0.02772111161135317,0.08383249254604111,-0.3104283973494135,-0.001668726754722829
1627411495975843,-224.85889360841327,180.90640308651086,0.31726311487652176,-7.446168118126731,5.075607073689615,-0.024594901888324226,1.6012520012883225,0.9496054604365164,0.02740537840723775,0.02038173703427418,-0.33919514186575944,0.0739508114449269
1627411496075843,-225.61019966589183,181.40473815365493,0.31466068962749344,-7.5828799629702495,4.896878134823349,-0.040156792702718797,1.6022725189511546,0.9830787047099994,0.029693329344159487,0.023990314745420932,-0.34399797600942295,-0.09185118299575788
1627411496175844,-226.37738707384165,181.88301885985072,0.31238873715356524,-7.758033547610011,4.666139250647017,0.009132113889106555,1.613701373374796,1.0175013265247161,0.03502211059931474,-0.04794257045784925,-0.35562522916740225,0.0192826928547449
1627411496275845,-227.15920186348754,182.33531699387606,0.3084338938683067,-7.868836545007486,4.383617580181106,-0.09628650616111031,1.6220996932381573,1.0512106761846232,0.041486888103842316,-0.02447559507570742,-0.3348293205064142,-0.07560748318487528
1627411496375846,-227.95364637798312,182.75885181893568,0.29954100571853143,-8.005785062168322,4.090627078500998,-0.11139278547698939,1.6308418308915063,1.084724708874662,0.048914796081533776,-0.034235550747352135,-0.3406342151377682,-0.02667165664934901
1627411496475847,-228.76051652715825,183.1533032552908,0.28927350682037767,-8.125854129600194,3.805648395615975,-0.10463660929036718,1.6319483292010128,1.1182409432585423,0.048964544354409126,-0.02423264576141948,-0.32944743917267644,0.020277214579175307
1627411496575848,-229.58016769792974,183.5190950476279,0.2781184541541442,-8.267704511383599,3.514613446808152,-0.10690166062497425,1.6330261119108982,1.151943382971096,0.04938370274768463,-0.005475377865389773,-0.34039695870734715,0.007792768274138876
1627411496675848,-230.41489920070075,183.85647948609088,0.26885885372721713,-8.416842031315785,3.23348200429672,-0.08048172898078511,1.6313170045532783,1.185791182286867,0.04874031916137407,0.007578462551588913,-0.33953536830795134,0.02579977323391392
1627411496775849,-231.26429051381214,184.16478920495345,0.2615410957044846,-8.559949689926675,2.955904493362607,-0.07646366951596995,1.6331506075837474,1.2190208503679465,0.050321478985571766,-0.1354059345410048,-0.33507646429527016,-0.024050334183176265
1627411496875850,-232.1262521629071,184.4480698318415,0.2557834947799358,-8.656293342743778,2.7137199046005613,-0.07116923055340811,1.6355082564296501,1.251613650418836,0.0535454671229751,-0.031331240592249,-0.3230942061015756,-0.017315781541071943
1627411496975851,-232.99729848648388,184.70579209982708,0.2529717652541804,-8.757588932905362,2.457895655899266,-0.008268671179148842,1.630071745466529,1.2835973980563353,0.050629879216367336,-0.03718564883267052,-0.308701991780577,0.03919538938346929
1627411497075852,-233.87924765799534,184.9389143966971,0.2519027375724284,-8.87163120876426,2.2380620680423684,-0.040072089045341576,1.62051556598305,1.3146671247775028,0.042689774145900576,-0.12090694642310723,-0.3012458001187042,-0.007812015266156486
1627411497175852,-234.77377239933338,185.15157995151128,0.24979006058560443,-9.014688784094407,2.0325519267766254,0.003592701081428396,1.6197699673109531,1.3442970420205393,0.03825658133874326,-0.07049502794903095,-0.28163417715923605,0.01963726165888436
1627411497275853,-235.68221190839554,185.34191258456372,0.2502203144972933,-9.14883865508546,1.7945128978285114,0.004622120120528058,1.6311805647390956,1.3719569408899823,0.04699002922227728,-0.0014852233082662644,-0.2623948928145677,-0.031327359547038705
1627411497375854,-236.60239449559634,185.5082432347374,0.2494599908143275,-9.245440590388371,1.5465651659725044,-0.02046707987747932,1.659008953433749,1.3980510458711768,0.07345316029108763,-0.011893004669412776,-0.255598253400149,-0.03194812063280931
1627411497475855,-237.5311919916943,185.65205637284797,0.24638192013429375,-9.331838358925497,1.333409773365217,-0.03249790793153273,1.6856969517056086,1.4226555140191322,0.10059272696836799,0.007772074350907138,-0.2384008486199343,0.004291617655046723
1627411497575856,-238.46760892024892,185.77573109678357,0.24107230925151252,-9.394714544695418,1.127543777554141,-0.06782173643620873,1.7151365718860798,1.4446880395321928,0.13042520503964525,0.04404887276452625,-0.20903538689525591,-0.021303822959316876
1627411497675857,-239.4106857156888,185.88064719295326,0.23552491248587626,-9.470666733630786,0.9647229989789401,-0.05286940290908955,1.7302447525315945,1.4635747190364587,0.14806297236313903,0.005946155015704403,-0.17207941032903695,0.017369922269473526
1627411497775858,-240.3613428879336,185.97133675750865,0.22953074985575217,-9.539632611757282,0.8445647513889876,-0.06631891312427146,1.7510428590976632,1.478953787106529,0.17231872233828838,0.010052138451418774,-0.1344534233670752,-0.010129618959645027
1627411497875858,-241.31952265723874,186.05066920590636,0.22494806189242073,-9.626482867329683,0.7486605930033208,-0.019989649725488313,1.7668003245067059,1.491199039387052,0.19223485452928368,-0.05022394213914079,-0.10445041019491064,0.03307674226428509
1627411497975859,-242.28476779679985,186.12250136343326,0.22178335403895144,-9.676375041308077,0.7105525890318451,-0.04157546016219507,1.7860065511447623,1.5004264813136963,0.21656127947758225,-0.057828887854130345,-0.07563341447518522,-0.010993686209592424
1627411498075860,-243.25632068781405,186.19277776747393,0.21881463215876643,-9.755178271042505,0.7067433743789416,-0.027804462272647053,1.7878968791401773,1.5075625801633064,0.22033499309366106,-0.028545525231922244,-0.05918672144524334,0.01997561809516825
1627411498175861,-244.23592833728154,186.2622165968335,0.2153039453996214,-9.839046024359284,0.6850896119545279,-0.047387153740187725,1.8049470104210206,1.513005881506713,0.2368544291516482,-0.0027601367450427617,-0.049746904096713895,-0.01777499590728255
1627411498275862,-245.2264368603049,186.3290590005237,0.2097345367294963,-9.966158661182314,0.6595507542055434,-0.08513081288282086,1.8628413251769067,1.517328117684471,0.29343744172592606,0.006731786569765617,-0.044611231411634686,-0.05079782089429205
1627411498375863,-246.22678179714904,186.39080718457203,0.19939459166272855,-9.983621075089788,0.5843396370888332,-0.17261389498302063,2.0288551491885802,1.5194715159919832,0.4588263334087854,-0.061934200975312055,-0.04535273200958525,-0.2074582767730245
1627411498475863,-247.22934956446355,186.44548961370734,0.19148299249145861,-10.036261892597638,0.5258374631708559,-0.024216777105015394,2.119112295168235,1.5227819908833546,0.5501484106952841,-0.02278179539679666,-0.047445491807783485,0.09463867789836301
1627411498575864,-248.2304930624382,186.4963214003213,0.18548480511390794,-10.000162130080131,0.4989999517735835,-0.13453069629669706,1.999967539848725,1.5307563038480434,0.4313933285725134,0.003857838941046149,-0.03611348368217079,0.012203248848851943
1627411498675865,-249.23867972591603,186.5448268348116,0.17777343734384754,-10.173688016677284,0.4708862848884068,-0.03617504154109037,1.9207461829344903,1.536062322064238,0.3523588361386525,0.037203947575889844,-0.03778459680148405,0.05427414792552276
1627411498775866,-250.26437152091026,186.59133648033836,0.17253825523547567,-10.33449022874005,0.45854573834132695,-0.05479153286800264,2.001523855058427,1.5375515806763607,0.43418155608413156,-0.03288189652831174,-0.01738709543912391,-0.06727103140022313
1627411498875867,-251.3025937075146,186.63782658279453,0.1663106584334007,-10.422165223913687,0.45998247137939813,-0.054973349090514094,2.2172248710664224,1.5344140675733553,0.6485930682529459,0.04502780799443886,-0.004434641723726839,-0.03936432285449157
1627411498975868,-252.34513358120245,186.68504387298862,0.15797381588309728,-10.43221078271137,0.48340805663165065,-0.1309144580596374,2.3033441121522262,1.533072952522303,0.7364979147102924,0.15382571516348847,-0.0022283180591247858,-0.022536274637527255
1627411499075868,-253.3897903996265,186.73535466780288,0.14361432963041793,-10.460246211636028,0.4592877387662119,-0.16474558787761093,2.295092363597622,1.533690604392315,0.7225489810269425,0.1374940900786506,-0.015192052599409442,-0.0048794704257999495
1627411499175869,-254.43969701175013,186.77871216361567,0.12990862415001314,-10.541596443318666,0.42517947470390594,-0.0829991163041372,2.235820040077363,1.5370177204358546,0.667069978804806,-0.015667529993172866,-0.01579975183881431,0.09337826385939517
1627411499275870,-255.49734366578227,186.8243636492008,0.1202950205911125,-10.614390144594783,0.47586337578608995,-0.12655635834917153,2.159835883930634,1.5407579432314205,0.5893237049641795,-0.020357828546576726,-0.029677041157386053,-0.0226364607219679
1627411499375871,-256.5654401288453,186.86963571393545,0.11122655329474251,-10.744428812327493,0.4283201175375197,-0.09366671512440967,2.1895101284995007,1.5416676966959484,0.6183894599327248,-0.06432099657074467,-0.002003110997528934,-0.03743195042059605
1627411499475872,-257.64534524007917,186.91145961723365,0.10146304805875511,-10.835909029947144,0.4570202901128422,-0.1226449485289158,2.3521532792712985,1.5378178613345765,0.7820533036956314,-0.02594243400956112,-0.0019199846817808367,-0.10306685140249575
1627411499575872,-258.7278644023315,186.95860989409263,0.08992834933116939,-10.788476155896772,0.49776266678177933,-0.14550305222788698,2.4893464329313897,1.533882182223507,0.9131011868010643,-0.10680816206922916,-0.010495145699889437,-0.07985848327197988
