GPSTime,easting,northing,altitude,vel_east,vel_north,vel_up,roll,pitch,heading,angvel_z,angvel_y,angvel_x
1752852345138959,-46443.040108975234,22733.23962679814,-82.6235309897413,-0.004463318442767287,0.0014747018087087349,0.003060402847368391,1.5629750055065403,-0.3256106228487442,-0.030381645810384876,-0.004042233797871422,-0.003706363187678993,0.0028048426775680413
1752852345238960,-46443.04042220996,22733.239691557126,-82.62327882560403,-0.005497246595514814,-0.00031288435237013235,0.004728398205468652,1.5629726423869659,-0.3255797655666546,-0.03041554594866905,0.001663453152937403,-0.0013693685380148156,-0.0001833545472269624
1752852345338961,-46443.040746143415,22733.23977746191,-82.62305239773659,-0.001610703254752191,4.440546982835843e-05,0.001759182314559311,1.5629698379452706,-0.32560760054198534,-0.030383820444072077,0.004519044233344793,0.003038736141981916,-0.0034969648498150247
1752852345438962,-46443.04103781422,22733.23990617526,-82.62278575314181,-0.0011873800830756297,0.0017400150122013542,0.00021685268531717935,1.5629566906096517,-0.32561705242766453,-0.03034941334356516,-0.0029026017341292456,-0.0005452914102101451,-0.00016246877773660583
1752852345538963,-46443.041311488334,22733.239970958366,-82.62253367106977,-0.0018004808258899599,0.000399540991647213,0.0012028971908858588,1.5629518758679264,-0.32561685711885086,-0.030355550056062053,-0.0037000130896457572,0.0033378800818169374,0.00021293543285396058
1752852345638964,-46443.04161695121,22733.240023697963,-82.6223035578017,-0.005797377912606059,0.00022081290278501973,0.0052193998279156445,1.5629474070798361,-0.32561038306099416,-0.0303886588154778,-0.00367719181520499,-0.0023050949503340044,0.0027237583296121294
1752852345738965,-46443.04191156202,22733.240120256432,-82.6220760212517,-0.002083292750670049,4.6115064114569415e-05,0.004138033927748314,1.5629605335463843,-0.3256360520995128,-0.03037438791647746,0.0012182049629324576,0.0005486009870114941,0.00016689607371194097
1752852345838966,-46443.04219635599,22733.240177273412,-82.62184853768726,-0.0010086258600381331,-6.79814047109988e-05,0.0007596287534574347,1.5629850573084354,-0.3256128719285354,-0.03037889857782864,0.005253016702119627,0.0007196557171861791,-0.0019742865030571463
1752852345938966,-46443.042512445565,22733.240132330207,-82.62156327104526,-0.0032628115964079096,0.0008184481117204038,0.0019197110101556124,1.5630530907303966,-0.3256173233932216,-0.030377390853230483,0.0018706749139888914,-0.0025719763692188813,0.00013573187450967772
1752852346038968,-46443.04273220572,22733.240177968004,-82.62126232498645,-0.0037514606126286382,0.0011366307100828283,0.003629843265966089,1.5630245071817266,-0.3256254998585648,-0.030403368065843647,-0.0025210562291917817,-0.001165126984729094,0.0016370580389930417
1752852346138968,-46443.04285271289,22733.24026826473,-82.62116297707998,-0.005754661016541575,0.000570883300196913,0.0034184605012114976,1.5631075155982757,-0.325611910441971,-0.03044060227165607,0.0013026664119153806,-0.00393736308949026,-0.0005222887240007217
1752852346238969,-46443.0430685358,22733.24024917054,-82.62104555326484,-0.002108362197131115,-0.000799207814535652,0.00010224749489229849,1.563085964122589,-0.3256469560614916,-0.03039209539174316,0.003929529549684648,-0.00045818304847227174,-0.0020908430019765402
1752852346338971,-46443.043289700545,22733.240201272805,-82.62080084990224,-0.0030046960368801017,-0.0005082125449057528,0.0017116209071042483,1.5630652522418649,-0.3256521324944429,-0.030381007401660127,-0.0017204931078192809,-0.001791747073823366,0.0008860822657430365
1752852346438971,-46443.04347887822,22733.240167567423,-82.6206119681343,-0.002387181594130671,-0.0005323229806661869,0.004115687229704346,1.563130556191275,-0.3256452080632456,-0.030417530634173615,0.000967573101204898,0.0023569196091871177,4.224725928628066e-05
1752852346538972,-46443.04369282473,22733.240123060517,-82.62042073088071,-0.0007088155948936663,-0.0002486773825991531,0.0017552893099080696,1.5631761148896128,-0.3256330250112107,-0.030393007280905316,0.0007251657287902325,-5.492440021861072e-05,-0.0007656390892838929
1752852346638973,-46443.04390811825,22733.24005075664,-82.62018817395752,-0.00398514326832363,-0.00044540555871588026,0.0009554962982827877,1.563237570259539,-0.3256203157181863,-0.030396795489286123,0.0003684449147123608,-0.0023574261748522387,-0.000944976294313979
1752852346738974,-46443.04403283612,22733.23994364838,-82.61999853519468,-0.0006029295852735922,-0.0024598011035868827,0.004888391121634939,1.5633218835280127,-0.32560671789004547,-0.030462557934087933,0.006824210801582646,0.0031605587539349795,-0.00010663478560594385
1752852346838976,-46443.044121280735,22733.239838519705,-82.61979103295961,-0.0007571418728015803,-0.0008924662890909693,0.0017328430384994558,1.5633876968717648,-0.3255929138936405,-0.03047791548722669,0.0025495006512932686,-0.0023907019575891662,-0.0004443511967740511
1752852346938976,-46443.04424868365,22733.239753957034,-82.61958530370165,-0.00031699323766746335,-0.00033147353444011883,0.001765550000950373,1.5634208747166647,-0.32561812190140954,-0.030522379916120508,-0.0002601662756249354,0.0034137350417241586,0.002405612961189549
1752852347038977,-46443.04447091765,22733.239648565996,-82.61949176825125,-0.003610794998890839,-0.0008866095884833224,0.0026768282296082335,1.5634638247960457,-0.32561709807435013,-0.030541805814531774,0.0008363647960401793,0.0006530238054952875,-0.0003887805998270542
1752852347138978,-46443.044726304586,22733.23965358403,-82.61939120512747,-0.0015617908874918241,0.0013905048446146635,0.0021695429359689855,1.5635121907195404,-0.325653770617112,-0.030481695088936753,3.3435174822100685e-05,0.0001800806302284808,0.000688894489766752
1752852347238979,-46443.04489594982,22733.239641660522,-82.61925431645437,-0.00011783921865810187,-0.00025441099517864717,0.0008485273449450837,1.5635316765844647,-0.32566301293745775,-0.0305039799123825,0.0016368097199737296,0.0016093172957658934,0.0026860097460626527
1752852347338980,-46443.04506141861,22733.239540574537,-82.61919402781096,-0.004946394253670506,-0.0004000283076734582,0.001639531913711568,1.5635653194162549,-0.3256598781806233,-0.030579169532541216,0.00024590483735261744,-0.003104260260567027,0.00016388515030498833
1752852347438981,-46443.045269842456,22733.239568769208,-82.61912766448546,-0.0014119929224063936,0.0005837890299236957,0.0019632010283896157,1.5635901035176654,-0.32568014106511955,-0.030606660940912387,0.005903071860371097,0.0027023199344920522,-0.001590132471789342
1752852347538982,-46443.045510464864,22733.23967581389,-82.61904751551714,-0.0017295568325403005,0.0013492252860170973,-0.0018621526674064844,1.5635793062125538,-0.32571061617265756,-0.030592654889339974,-0.0002862236789890361,0.0015448785123439528,-0.0025239394192246144
1752852347638983,-46443.0457811959,22733.23985108234,-82.61892794874508,-0.004297216591049453,0.006338277627730985,0.004314073511308528,1.5635617232416275,-0.32570509113288454,-0.03059538432563431,-0.0018571001396427433,-0.002669452602611482,0.0021288474217884146
1752852347738984,-46443.04535150158,22733.24158165434,-82.61812359850683,0.009243075009339772,0.02785720963074188,0.01432945851950456,1.5637658632772367,-0.3256873450834058,-0.030763289374793407,0.005459842218445369,-0.00015502875159766443,-0.0013007464673677738
1752852347838986,-46443.044048755546,22733.24561680623,-82.61694467559647,0.014417805261685871,0.05273308746432447,0.010242825680093806,1.5639732897085952,-0.3256458822965207,-0.030944674227921878,-0.0017747362758300047,-0.004274121292591721,0.0023551051649667223
1752852347938986,-46443.041958205235,22733.252331223957,-82.61639138073753,0.02547373464585527,0.08359254183432427,0.0031129230939780303,1.5636972494817565,-0.3256261613202542,-0.030915882955088656,0.002430230384787226,-0.001368578712438582,0.006561453666520859
1752852348038988,-46443.03879521312,22733.262582711952,-82.61638465253773,0.038072009719372774,0.12422633966723548,-0.0009907549269880793,1.5631746232351011,-0.32554949186925014,-0.03073048921514113,-0.0016653118664207015,-0.0034743060514989634,0.006538795139291708
1752852348138989,-46443.034095388284,22733.27726851121,-82.61651424919414,0.05388046101884018,0.17069121160340037,0.0016368779604611738,1.562897640660966,-0.3253457056520968,-0.030680920294019382,0.0007389403099134583,-0.0019010414746170076,0.002579092667751532
1752852348238990,-46443.02786655918,22733.296642451955,-82.6164591767021,0.07109951050296043,0.21595322883407164,-8.520352332571664e-05,1.5628526304878678,-0.32490155266193305,-0.030681934839523865,0.0009192783708585142,-0.0030775214440505482,-0.002749408340581502
1752852348338991,-46443.02038803266,22733.32049833928,-82.61627639076386,0.07678730368054465,0.26048058942432895,0.0006290816681181547,1.5628918980071294,-0.32406856982029997,-0.030781215852452866,-0.0001426553339456283,-0.0125394178749688,-0.0022310485276457286
1752852348438992,-46443.01212882214,22733.348532845026,-82.61606845501774,0.0826094552832373,0.29723457882664905,0.004926014801564621,1.5629829901491572,-0.32275124675660305,-0.030708902853195816,-0.0007143764524924397,-0.017244231463081478,-0.003049569942330761
1752852348538993,-46443.00333018583,22733.380013481503,-82.61571096531729,0.09315782238742497,0.3340623317281968,0.003178455764359502,1.5632168393633346,-0.32109612185776526,-0.030642847848804874,0.00426244430486898,-0.016505783919285175,0.0012724635108586357
1752852348638994,-46442.993217313015,22733.41630118143,-82.61569854115496,0.11011151313428309,0.39568435847664324,-0.002084495302378993,1.562476193834684,-0.31888334494608733,-0.03055046353422049,-0.0013446155146237266,-0.021976014845613984,0.010710352246230166
1752852348738995,-46442.98104269099,22733.459691198517,-82.61592672501044,0.13444786872754577,0.47465852673865716,-0.002048629730110673,1.5609821221913,-0.31586343948171486,-0.030247430254566377,0.006798764383033729,-0.03542339267319874,0.014980662313970472
1752852348838978,-46442.96596755533,22733.51233158266,-82.61611783180123,0.16357475644098152,0.5820886741671535,-0.0005708265168868433,1.5594417016215556,-0.31202358937522273,-0.030582094784907487,0.014340086774377188,-0.047108907681860976,0.012556555724410641
1752852348938953,-46442.94879181815,22733.577004887193,-82.6157576806,0.1781030978754888,0.7123174818427405,0.008092700648742323,1.5579944748739518,-0.3070954912734447,-0.03063047804830862,-0.00269752750177618,-0.053919884686027805,0.0073512284231370606
1752852349038921,-46442.93115739621,22733.654686982583,-82.61432132595971,0.17254444793757356,0.8433575178480985,0.01950354070567995,1.5575535737951673,-0.3010065205135353,-0.02974294489922227,-0.015326709602737958,-0.0628092375624048,-0.0051198727279153
1752852349138880,-46442.91360629958,22733.745387371837,-82.61225853716005,0.17929148645852794,0.968873287120999,0.02083570000593246,1.557775062145045,-0.29402495945846585,-0.027819968882204237,-0.02490419867856892,-0.07686655493321874,-0.0014792315282882542
1752852349238840,-46442.893998266896,22733.847838576057,-82.61063775655796,0.21606251518917316,1.0774976137045882,0.012603815820357737,1.5577095343979144,-0.28535921115569046,-0.025706480265147005,-0.009857854850089087,-0.09458520985387646,0.0037665482318926845
1752852349338796,-46442.87003920828,22733.961496030573,-82.610097012903,0.26102986073543083,1.1949198833782408,-0.00011660198874381794,1.5569896405992403,-0.2756569307320671,-0.02494535218898697,0.001650867178403403,-0.10218105489457426,0.005590122347749068
1752852349438750,-46442.84197384883,22734.087250077657,-82.61034461023425,0.2903740821312238,1.3233148907720758,-0.003135230006511084,1.5558936195657607,-0.2656411333760734,-0.025647377460165446,0.008190013043205201,-0.10283916575595667,0.0058157541705483535
1752852349538694,-46442.812899584416,22734.22644336074,-82.6100404681097,0.28688696255345414,1.4623117428158916,0.00891702343982152,1.554524521673527,-0.25488555997340023,-0.025733518382689897,-0.00602651804113251,-0.11071194454634958,0.01096088614833995
1752852349638630,-46442.78467237571,22734.379637308804,-82.60876077873871,0.2815618520917558,1.605232861418185,0.012388851069087244,1.5528357865216318,-0.24283522583528308,-0.0248445826731059,-0.0029069532533811536,-0.1297397686309425,0.015264822039444315
1752852349738554,-46442.75620173714,22734.547960607153,-82.60801220200678,0.2886456406891679,1.7629451479006066,0.00416593197344943,1.5508377084898237,-0.22959140493608157,-0.02338696129190495,-0.01714368997382075,-0.1316442480431914,0.020431635652849077
1752852349838472,-46442.72684884279,22734.73257670723,-82.60768668758213,0.3037051708926674,1.9326748121588624,0.005917751638546722,1.5490765197944614,-0.2168630616250215,-0.02118836031155993,-0.012340110692972197,-0.12144588489880316,0.008573646713871123
1752852349938392,-46442.694218553246,22734.934563969477,-82.60697462222913,0.34357346726823945,2.1060316557389847,0.007608431199854712,1.5484230049991767,-0.20459847158134428,-0.020374407370879317,-0.0059648674810502435,-0.12365966715339802,0.003545240410707979
1752852350038324,-46442.65874133446,22735.152990915187,-82.60613626023516,0.3606440296026622,2.2653902581228387,0.013963918178242475,1.548052315621756,-0.1926854568660969,-0.019571421152361757,-0.015007604927436793,-0.11521512897630697,-0.003757031516012814
1752852350138270,-46442.62249252714,22735.38667856294,-82.60399129863664,0.3561324039750114,2.4102940502635954,0.027903172964277884,1.5475908312085955,-0.18176711491067282,-0.01864544119683956,-0.016446688432026933,-0.10739335030194892,0.011229802551745239
1752852350238226,-46442.58803548356,22735.634992156636,-82.60111343943696,0.34664472015471853,2.5576194132299177,0.027943607739449722,1.5462072474130155,-0.1703889073120371,-0.015877872098562135,-0.02781838982385537,-0.113736938878247,0.016591494923876612
1752852350338194,-46442.55301342259,22735.898550571637,-82.59888610898957,0.3560598567261152,2.7169508695735343,0.01992014360301867,1.544533683447859,-0.159972855162303,-0.012699993621889168,-0.03001004719844333,-0.08756316477945802,0.010886665456520955
1752852350438175,-46442.51592146608,22736.178311732107,-82.59711365145847,0.40035034779657547,2.875449545390426,0.014093602239978919,1.5438499976379072,-0.15220815237213722,-0.009674960192371388,-0.014614871539031397,-0.062355434017494646,0.0046833987041592605
1752852350538160,-46442.473069796375,22736.473158719615,-82.59591656316015,0.45564738301127744,3.023324574013651,0.016677816521887413,1.5436385134247466,-0.14541109256182352,-0.009134348311638136,0.0007159110808247619,-0.0650962028586808,-0.0018747278704219605
1752852350638150,-46442.42631038499,22736.783306592406,-82.59320607462224,0.4780368481617614,3.177739965554056,0.03494416405424302,1.5442992187537306,-0.13876143204799754,-0.009408564943776392,0.012620111030477487,-0.0634274708998208,-0.00944983203383464
1752852350738151,-46442.377847292286,22737.108331821917,-82.58984576731805,0.47044250613591676,3.324727065789132,0.03594017716902897,1.5449148126834136,-0.13310228298601628,-0.01060211506458835,2.0205151344960877e-05,-0.05683457577866468,-0.007393081559062994
1752852350838152,-46442.330912713864,22737.448549214456,-82.58629834151968,0.4687737492847954,3.4762342555831833,0.03906874610800537,1.545992996635508,-0.12856697111130774,-0.009460995558947381,-0.01777648168223175,-0.036655218068632575,-0.008220877361253971
1752852350938153,-46442.284278446336,22737.803868354516,-82.58239248062429,0.46606484431374773,3.6221403410396538,0.04098470508191298,1.5475375181186175,-0.12584843009340724,-0.007913846535320047,-0.0200728426252354,-0.01955367723111324,-0.010777970893610827
1752852351038154,-46442.2366907114,22738.173255165344,-82.57841087829769,0.4899604383537866,3.7612839767400397,0.039613846471856104,1.548500190376317,-0.12357526416316429,-0.005914639497135109,-0.021336110308544515,-0.025722061619393548,0.0024480759306110635
1752852351138154,-46442.18522924125,22738.556032386747,-82.57490318488983,0.5340377647047455,3.89564868876976,0.0354001886864101,1.5485387376133875,-0.1203936695559227,-0.005225617682716568,0.003140103386973149,-0.03466943630114544,0.004322489309934704
1752852351238156,-46442.130418033055,22738.952710228885,-82.57186013550813,0.5584515300442056,4.040901586315324,0.029644252039056233,1.5479397457931545,-0.11726241600850931,-0.0056380050663342235,0.009080255724566192,-0.03290625538886053,0.008964114929967987
1752852351338157,-46442.07361778561,22739.364606273204,-82.56886771661708,0.5680691574053028,4.1959890751618785,0.030410783756919368,1.5475598234875143,-0.11426947761791992,-0.007091658274375944,0.009762307053222563,-0.02803511668294336,0.00515319700742848
1752852351438156,-46442.017258130465,22739.79231965643,-82.56590073592447,0.5621919500647901,4.355983050261722,0.029241058124121203,1.547628380157015,-0.11095645262372544,-0.007742011380960292,0.01005911354296852,-0.040452188364062905,-0.004169022189790384
1752852351538164,-46441.96155920951,22740.23562130876,-82.56320497346027,0.550834116087969,4.5086478272566355,0.026868534756536278,1.548045515074108,-0.10719208613358237,-0.00799236867602748,-0.0005109397471539664,-0.03688417932717435,-0.007723968866321371
1752852351638178,-46441.906542805846,22740.693869664774,-82.56012338597452,0.549459525352076,4.651202361754461,0.035415685038904465,1.5487958178567072,-0.10281627172631548,-0.008284663082395729,-0.0041248315175087605,-0.049946493020475706,-0.007758357538811769
1752852351738191,-46441.85222016945,22741.165707398475,-82.55619396439558,0.5387520178484667,4.780719688768326,0.04393635825663965,1.5497118598854398,-0.09755762596415103,-0.00877424826994433,0.005245388206601737,-0.05028974070830209,-0.009722907692500253
1752852351838200,-46441.799684270336,22741.65027274666,-82.55203148508716,0.5132667046479712,4.9039795716106225,0.03766240269275677,1.5503892040270801,-0.09157526490532111,-0.009057111641298425,0.006277166259216618,-0.05051637494882681,-0.005910943613266429
1752852351938209,-46441.74953242728,22742.146774843623,-82.54793804710373,0.49037012221267284,5.020912946889659,0.0433881273657222,1.5503034348484424,-0.0859111185328174,-0.009141053991822457,-0.0034336405917433166,-0.057318673447198216,0.006543797979133789
1752852352038223,-46441.70143348919,22742.654579964197,-82.5438436733587,0.47564165032499167,5.131885997072938,0.04139887868779905,1.5496271220047342,-0.08019452240463512,-0.008683238164036308,0.002298388684052362,-0.05861244323549009,0.009758238626335684
1752852352138239,-46441.65473862882,22743.172602879215,-82.53968814677388,0.4581297580255318,5.22736445096829,0.0414686399744288,1.5490819110526945,-0.07405452918288441,-0.008532479131780983,0.004802741138654737,-0.05923320981337484,0.0010557482446104396
1752852352238258,-46441.60953191165,22743.700612794968,-82.53549745339069,0.43465963270620317,5.335964004157942,0.040407244085375875,1.5480458796436418,-0.06797966608955948,-0.008886868272597442,0.006370960963485157,-0.06065171187592498,0.013244981351767205
1752852352338288,-46441.56639726256,22744.240680594114,-82.53110444920269,0.4229585639809875,5.4596402150725005,0.05144459781241928,1.5466550926908342,-0.0623992205346035,-0.009015315942792382,0.009986897600938353,-0.05852329830405837,0.010950776129734807
1752852352438325,-46441.52543611711,22744.79322639618,-82.52529728368891,0.39186074979942936,5.581632586715248,0.06538316640581443,1.546000554372456,-0.0569740727475605,-0.008886672387356319,-0.0046566363025959245,-0.057300818358639934,0.007323418050404443
1752852352538370,-46441.48747424858,22745.357186336863,-82.51855842328784,0.3616652853863354,5.692550064455462,0.06710541395414141,1.5461655117401447,-0.05120902623167339,-0.008286950674015798,-0.013950679597660755,-0.05649544135420574,-0.003810737806397583
1752852352638413,-46441.452784506284,22745.93193502818,-82.51172362609736,0.3361511013623309,5.803656582934404,0.06492340183897588,1.5460266330144437,-0.04552648712586523,-0.007248301359648955,-0.0106623727333821,-0.051494501701805875,-0.0014153749520859425
1752852352738447,-46441.419587812605,22746.518264629103,-82.50499346384635,0.3271016451648882,5.921711072704849,0.06676027224240784,1.5455015636748957,-0.04044160050680416,-0.006641056317425388,-0.004670235864075815,-0.04736110672926045,0.005846488180923678
1752852352838468,-46441.386942876394,22747.11709031243,-82.49821880672263,0.31791380689274684,6.050889335624233,0.07264478214073275,1.545145936907482,-0.03547490626500961,-0.006657168748727669,0.0025405013510239388,-0.05125893844744235,0.001672212040633258
1752852352938473,-46441.355436566155,22747.72764170726,-82.49044745433251,0.3110446783194859,6.157790689189884,0.08651168923383755,1.5443601779268132,-0.031031988017140282,-0.006751555505404752,0.010913469653007529,-0.03970882232688278,0.015530398574502497
1752852353038474,-46441.32446886165,22748.349254221223,-82.48131123856959,0.3120076569181776,6.274344860192642,0.09893692310146242,1.5425501868352631,-0.02774351595198412,-0.007795006493891722,0.013791312670284439,-0.027748602307133895,0.021496100788917588
1752852353138474,-46441.29349782766,22748.982613520693,-82.47079070863396,0.3127446950444256,6.397560099903543,0.10775278988827712,1.540141591431702,-0.024967272422185122,-0.009453518107284814,0.019910453373002332,-0.026489605641933936,0.024754400766818646
1752852353238476,-46441.263502457,22749.62919014283,-82.46073829287948,0.28854571206032104,6.537044606465048,0.09065525202273766,1.5380647157538394,-0.021771767286585114,-0.010791408968829288,0.007010147516734057,-0.03346866898860264,0.016954908207775458
1752852353338465,-46441.23570595359,22750.29096619756,-82.45171074188143,0.2674423144150855,6.700160165979748,0.095242866925944,1.5380106785652412,-0.018755199557917015,-0.011703423681244827,-0.0015026651587314948,-0.023186376033233137,-0.014377455397140642
1752852353438436,-46441.21010344778,22750.968289662775,-82.44174790243501,0.25575279812190393,6.845556393163649,0.10865751904117496,1.5405876652027752,-0.01603038983027375,-0.011982377269827746,0.003905205481227387,-0.026689873132384127,-0.03500662509755013
1752852353538402,-46441.18402022334,22751.6583613584,-82.4295915860603,0.2621901915269579,6.955371991563384,0.1271289343011934,1.543623794921519,-0.012890256172791518,-0.013568336560155773,0.013708274570505502,-0.028490020261724633,-0.020994217187734112
1752852353638364,-46441.159285804315,22752.358386782253,-82.41769316894005,0.22748029030686384,7.053893037618274,0.1054669850986985,1.5441718850242154,-0.009281132850910217,-0.015298732450948928,0.010125134220010544,-0.03541390624425543,0.006504485623984773
1752852353738332,-46441.13736381189,22753.06788910447,-82.40722127327378,0.2206462884431724,7.145070001505109,0.10725962389322129,1.5419853185246981,-0.005571132671875593,-0.017268713160356684,0.03882026517287177,-0.03678052396597237,0.03555239742249348
1752852353838307,-46441.11608646135,22753.787058416914,-82.39578217245051,0.20298042466200644,7.250244582025541,0.12819094425935973,1.5375823991670312,-0.001384198710261132,-0.02135237549648447,0.0409661372372242,-0.04224934953902355,0.04307147387503234
1752852353938290,-46441.0999376727,22754.51921632259,-82.3818884694312,0.12097631605028922,7.396098730600539,0.14526784978534757,1.5341184727235913,0.003755397713001305,-0.023377668828798555,0.0003726266563890487,-0.05199126198799165,0.023635071559769023
1752852354038288,-46441.09201064193,22755.26620304297,-82.36755421110763,0.04221954814736162,7.545690660287167,0.1487272284377945,1.5328294918319223,0.009143238666624757,-0.02322370840676318,-0.0037157768326561967,-0.050119834602537446,-0.0026750136194231477
1752852354138276,-46441.089718592746,22756.02765133211,-82.35136146650105,0.01007484478389072,7.682709516856191,0.17423294195412625,1.5340212804979414,0.015156964572782953,-0.022687824177264847,-0.001112403040206197,-0.05931588684619785,-0.019995532509092584
1752852354238263,-46441.09040137812,22756.8013393845,-82.33299614120347,-0.022653357874520528,7.79128532394927,0.18793856923796243,1.5360542009978393,0.02183972264973657,-0.02237482678184334,-0.0024973114716077354,-0.058810204376465045,-0.013003466713679919
1752852354338246,-46441.094286864485,22757.58466967104,-82.31480108723738,-0.05510684130394029,7.8797970914576085,0.17004033504030933,1.5362402081223216,0.027634990870053878,-0.023567759344683272,0.02063333974230788,-0.05752300092402731,0.0067441484333777245
1752852354438229,-46441.102530507625,22758.377838522825,-82.29842844834056,-0.11822269316150882,7.991390406688188,0.15709727658138029,1.5346624013101324,0.03322113862667635,-0.02514722655448773,-0.0021566747081845495,-0.05723495765327338,0.013447875858785843
1752852354538227,-46441.119296442695,22759.18343640637,-82.28307418289234,-0.20350234835722003,8.1218048888678,0.15449822115865547,1.5349612328033495,0.0392845512054757,-0.023824265123277,-0.010510594614833158,-0.06324752707899622,-0.027019558458420686
1752852354638220,-46441.14115224646,22760.0015135672,-82.26768597290445,-0.23476723986383816,8.236820526454965,0.15129456527902568,1.5391499775700423,0.0454737462099996,-0.02327063634760889,0.005016107561207006,-0.0617272231328747,-0.05947221347567753
1752852354738212,-46441.16675063581,22760.82955274361,-82.25353543521838,-0.28055006497552615,8.321465738025244,0.131425481515621,1.5449751749399503,0.052066602094748636,-0.02307414820683968,-0.006695405195935281,-0.06199941810080208,-0.05489880363558326
1752852354838201,-46441.197895253266,22761.664658728474,-82.24193130862174,-0.3352651727070182,8.378940119840575,0.09750426379260269,1.550185669348647,0.057893705802757926,-0.022148709771385732,-0.006953133681835839,-0.04835865305126752,-0.05168648592040583
1752852354938190,-46441.23393681774,22762.503900786956,-82.23363285840225,-0.38051574867726623,8.40453254442175,0.06412045891306274,1.5549275469168902,0.06292153732474191,-0.021131968748015616,-0.007341615218285691,-0.04233975095266083,-0.04249692965680087
1752852355038189,-46441.274658883754,22763.346490901058,-82.22967922927353,-0.42582468991672606,8.448980381770555,0.02311019742321981,1.5580067540325655,0.0673573576491422,-0.0191708327415836,-0.016003893325198307,-0.04013055933069512,-0.0226280826317379
1752852355138186,-46441.318020100814,22764.19399380653,-82.2280689162668,-0.44044480868196306,8.502569660731092,0.012761359267130274,1.559861769181908,0.07109170393183524,-0.0179671898307303,-0.007967839579157459,-0.03423903668872227,-0.010241562757819617
1752852355238188,-46441.36347238581,22765.046365178678,-82.2272143690813,-0.47352688489959416,8.54653112519511,0.0038897333850985384,1.5612839251739725,0.07510204474617747,-0.017592323293211365,-0.0012543433101604652,-0.045444128206427056,-0.01221954646840608
1752852355338194,-46441.412447855735,22765.903706400193,-82.22768979389687,-0.5109540716801787,8.601604989895096,-0.010550702137857082,1.5623898653620791,0.07899045936862446,-0.016953298159210144,-0.00969042571804959,-0.03503041492241383,-0.007701227149417428
1752852355438214,-46441.46557177261,22766.766968351694,-82.2290191652361,-0.5467922926740932,8.665094286129982,-0.017310138203421335,1.5625619815689413,0.08271082724493554,-0.016317148876350444,-0.004538148123447941,-0.03240296680810399,0.0008666131431021412
1752852355538241,-46441.52228859833,22767.63818668284,-82.2310554612768,-0.5843811808073829,8.75528637070643,-0.02709573219068309,1.562854166752941,0.08635852708860903,-0.015641646383287224,-0.0032292339761115637,-0.033848931861703985,-0.01430694514103499
1752852355638275,-46441.581998268615,22768.517867904844,-82.23375670533272,-0.6119693590762179,8.834165267380754,-0.026635051844870302,1.5635211402459472,0.0898375674564989,-0.01534611866313531,0.008114702656400127,-0.043381182303620376,-0.004397356747774918
1752852355738315,-46441.644064442844,22769.405783052738,-82.23682485912818,-0.6369953955597372,8.919585392803484,-0.03648507418872804,1.5643743218910031,0.09333344092785689,-0.01595367450205418,0.009724709839570574,-0.031100370611273923,-0.011277952341628079
1752852355838360,-46441.70951107483,22770.302695887873,-82.24161494183497,-0.6773334924454948,9.013525925610566,-0.06057880016511826,1.5659125307173603,0.09688658502190198,-0.016608568001046653,0.009226937728232854,-0.03700270656638464,-0.022596390088145478
1752852355938406,-46441.78007271788,22771.208921371108,-82.24832478648803,-0.7343806168192996,9.099625010246028,-0.07852045463985097,1.5686820884078294,0.10114651567035994,-0.016738794099244926,-0.004272215797223279,-0.05135189169794475,-0.03125415673604289
1752852356038442,-46441.85613818369,22772.122978603817,-82.25642898104624,-0.7847351166952073,9.174869095061313,-0.08818152645667687,1.5717499799363526,0.10616016922870199,-0.01660961819443303,0.008756362720309037,-0.05116735265474918,-0.029728060874155467
1752852356138473,-46441.93718060595,22773.043227366594,-82.2666355959625,-0.8438445729692303,9.229483523674244,-0.11648030783230365,1.5733325489219623,0.11186747109890587,-0.01742803249322617,0.00342603418627332,-0.05510324933398663,-0.007411231185658206
1752852356238495,-46442.026686074416,22773.969765486803,-82.27964490966374,-0.9410729680826915,9.304120631607672,-0.14063984085354236,1.5736627283562445,0.11814273085197607,-0.01687823122179286,-0.014495065230861243,-0.059103813636781306,-0.0038998060175001355
1752852356338517,-46442.12405512152,22774.90432523392,-82.29330343412747,-1.0011389773281443,9.373913987978463,-0.13196158190284252,1.5747945751103876,0.12445975441425772,-0.015966022334181835,-0.013348499162175535,-0.06225998969522088,-0.013277538882037969
1752852356438536,-46442.226224330814,22775.845736991483,-82.30645118576933,-1.0481679186936035,9.445667568460138,-0.13521659277733125,1.5752437780744806,0.13078593796856314,-0.01644452062954214,0.00454685365327408,-0.06325189693462953,0.00010616933060171704
1752852356538554,-46442.33411184483,22776.79429363476,-82.3203653995047,-1.1152665936939914,9.52711032685815,-0.1478309723794943,1.5744692357775736,0.13653360879882812,-0.01721432411739102,0.006284004143416861,-0.058176118194781024,0.01030552190310432
1752852356638600,-46442.44961347526,22777.752900047984,-82.33535817273435,-1.1811903867933709,9.632775416084783,-0.14879017781612305,1.5747532888192697,0.1421419162838464,-0.01705817628646275,-0.0033817788318697803,-0.05601821045641963,-0.014274962297594476
1752852356738666,-46442.57026215574,22778.721054726906,-82.34947378477177,-1.231810735053219,9.705322247051836,-0.12659206651819013,1.5755869041156476,0.14744886016223466,-0.01753768530326024,0.00717017712140912,-0.05197835818007174,0.00107920575705308
1752852356838740,-46442.69742492377,22779.69538763927,-82.36199210572282,-1.3109127743720133,9.758755330507254,-0.1312677449191552,1.5744140997302787,0.1524713021927911,-0.0171118709353832,-0.01845399695454114,-0.048060546614753084,0.02575506532604198
1752852356938793,-46442.83193078237,22780.67533263279,-82.37545633215383,-1.362418097078304,9.838830484235443,-0.12544836602894596,1.570738433848284,0.15644995142281806,-0.015618884725628616,-0.007267911203529077,-0.03516552233041181,0.03528176744994781
1752852356988820,-46442.90037700231,22781.169006341668,-82.3813962952201,-1.3771837165203789,9.90020005904723,-0.10534049110559178,1.5692094080780952,0.15803980223637148,-0.015415355868678437,-0.00858795285767852,-0.03139546679636897,0.02510605801463041
1752852357138841,-46443.110159820295,22782.6655579478,-82.39440055154112,-1.413473667523649,10.037948227539,-0.06256713282042113,1.5676197373826952,0.16207219057189357,-0.014919676376127391,-0.0010680847155257818,-0.020058958495615658,0.010025338195125584
1752852357238890,-46443.251500265316,22783.67344491748,-82.40021079573647,-1.414058544104955,10.1087149150099,-0.0530902179941194,1.5663765746805716,0.1645143886124817,-0.016769916861117017,0.03192876985521116,-0.026892628822847427,0.018887138099428654
1752852357338930,-46443.39319010177,22784.68906808704,-82.40632427182082,-1.4278814685766514,10.193651042290888,-0.06307990085195322,1.5653165768304755,0.1671664642972524,-0.0202555358820272,0.0321163449628817,-0.02329080657614555,-0.0017780219308081643
1752852357438957,-46443.53757504222,22785.712524735103,-82.41170598046254,-1.4623789101005005,10.258293609955853,-0.048124395548453866,1.5669314346224952,0.16983478462382812,-0.02363696038790401,0.04115834548568697,-0.027200948202586606,-0.024705547053037204
1752852357539003,-46443.68621985506,22786.74037410362,-82.41671559791382,-1.505589606098682,10.275368962549646,-0.05292343507518633,1.5690539209833188,0.17248866319587194,-0.026378629836668204,0.03173223237964045,-0.02750949598154231,-0.015158502572188344
1752852357639063,-46443.837732757805,22787.768479993058,-82.42225513329952,-1.5212374407862446,10.266849049472345,-0.05737395806206337,1.5694893939626555,0.17506176045708075,-0.02933422021611907,0.036985043205384066,-0.02428566426251542,0.00419549266131648
1752852357739142,-46443.99234693981,22788.7955201922,-82.42775198956691,-1.566650696462957,10.256197219628401,-0.047092844312801536,1.5677440811198198,0.17762865285302287,-0.03218193594396335,0.011783176908903795,-0.028235888498141352,0.027410633479974522
1752852357839238,-46444.15006778645,22789.822421303117,-82.4307027279666,-1.5786137587195659,10.255597537497016,-0.008141323899851489,1.5647047925109554,0.18005323680902513,-0.035118007931652116,0.03526284933418459,-0.02976514962011047,0.033022545591064614
1752852357939370,-46444.3100591707,22790.849225336486,-82.43005344394533,-1.6186189325219205,10.25153711276136,0.025327036843122486,1.5611985691075958,0.1829486668365261,-0.03825565905981408,0.014367293673283538,-0.03261142752323911,0.03206576894204753
1752852358039475,-46444.473481595785,22791.875744326455,-82.4258776587744,-1.6422093032592644,10.258051121986474,0.055004531078088226,1.5580550754371614,0.185957452046691,-0.04105888877276749,0.027781833115884294,-0.03337321226891836,0.022696157298107054
1752852358139520,-46444.64083211458,22792.90302216354,-82.4194866806967,-1.7124548233040038,10.275245078445135,0.07032453523723209,1.5562775528650508,0.1890899022989039,-0.043330055201221004,0.00033691217392960946,-0.03214992166411633,0.008841025090553076
1752852358239498,-46444.815283115975,22793.93052246546,-82.41141599001277,-1.7640724570265345,10.28182317732606,0.08897000648534174,1.555807193945199,0.19228916200113763,-0.04277554847296568,-0.004291139523880116,-0.03169125199218748,0.001827524888714691
1752852358339422,-46444.99396425079,22794.95732128259,-82.40210407437006,-1.8136797878798456,10.268152668000681,0.09457563613165434,1.5550875997186675,0.19562495116148138,-0.04219321583325738,-0.01642541653123182,-0.035436936000169,0.014406013981003992
1752852358439298,-46445.17711184255,22795.981852245215,-82.39185537422905,-1.8497215045958293,10.247776320736296,0.11614801688492592,1.5524211636522134,0.19888244436409558,-0.04092520626024798,-0.008173223705399161,-0.033232507307617586,0.032401408264888326
1752852358539136,-46445.36134442046,22797.004125689222,-82.3786628206352,-1.8486905665520825,10.232261356500187,0.1473662087610786,1.5480571656141067,0.20201249153558987,-0.04183031346262143,0.010596772638421433,-0.0328149379234124,0.04208902579174679
1752852358638955,-46445.5460427621,22798.025358062263,-82.36162433962187,-1.86037756971838,10.230947476744394,0.19206073566743906,1.5433632534281432,0.20496152821626903,-0.04420725586650132,0.018951254713107903,-0.03251972038959994,0.04631225940984313
1752852358738755,-46445.73327263441,22799.047475477342,-82.3405855400423,-1.9017713577295234,10.248230960122802,0.22095313813744838,1.540691312681048,0.20774748370811433,-0.04634877550535211,0.009478547123862422,-0.028171102022306282,0.003911859946214713
1752852358838560,-46445.92427849866,22800.07100848093,-82.31693032823524,-1.922811477312863,10.265719828591893,0.2444891689556486,1.5403783459202014,0.21030308358248237,-0.04722211629620531,0.017747649486259846,-0.020348013935721224,-0.01017073090254297
1752852358938382,-46446.11867370236,22801.095830185655,-82.29306633120869,-1.9786983372795444,10.264787145636848,0.22969051301098148,1.5415910492037908,0.21302171653857857,-0.047522176001119944,-0.01107566254848553,-0.02509807512809875,-0.014217782786931515
1752852359038258,-46446.31875907551,22802.119842976037,-82.27085688715667,-2.017857868231567,10.240349217350783,0.22019817862136273,1.5426562343939265,0.2157443839519203,-0.04567215121222059,-0.01793385632169429,-0.0254462405169691,-0.006611985307593278
1752852359138185,-46446.52248712015,22803.14081062726,-82.24875180977868,-2.0659747313898715,10.184846939784732,0.22268436419072432,1.542528773079809,0.2185275137975077,-0.04361879777429253,-0.026256548596179128,-0.0314456158010716,0.017845993739762967
1752852359238150,-46446.72931184974,22804.156309817354,-82.22596691326626,-2.0700348367803745,10.133287618833599,0.244284006859549,1.5397516272983016,0.22110596220642556,-0.04135738889342397,-0.017600560473122966,-0.027683557941937824,0.041789473808074545
1752852359338148,-46446.93660551354,22805.16786576489,-82.20015966488991,-2.0887384563579174,10.097156491563522,0.2747900578128743,1.535444279275992,0.22357827787495155,-0.04084380912211876,-0.021619774659009508,-0.02576931515932958,0.03924345972270508
1752852359438173,-46447.14664645953,22806.177484270404,-82.17054746067531,-2.108656583851702,10.086541326152815,0.3137268480927857,1.532663298289663,0.22618515964490818,-0.03929119057375819,-0.018806261734711997,-0.029355703334969858,0.016001017386053775
1752852359538222,-46447.358336916615,22807.18533322881,-82.13762166473312,-2.132236270462554,10.054691346618885,0.34286660085063947,1.5318061642483818,0.22907170488667783,-0.03803232632829679,-0.012596117955527047,-0.03527153394368204,0.0033421199309393787
1752852359638285,-46447.57356893546,22808.189091138298,-82.10297304344981,-2.1661962754554747,10.005664521263562,0.3459668438921755,1.531701001508297,0.23206901584782832,-0.035429890391223344,-0.0247036626487235,-0.028708088259258233,0.00012115396526470422
1752852359738328,-46447.79168010523,22809.186459421,-82.0685452672174,-2.197432995485537,9.936487688849303,0.34441536870673084,1.530660418633295,0.23485640757796983,-0.03284393442187506,-0.029255987854691887,-0.028905039379535723,0.012211577167830777
1752852359838335,-46448.011600793805,22810.177048405654,-82.03320707676595,-2.2011688285975723,9.870317779076048,0.36369535699563765,1.5287879030817544,0.23757063225242434,-0.030288801004204887,-0.02751758135162619,-0.026872048517496628,0.02387962464682542
1752852359938324,-46448.23073287794,22811.16079536878,-81.99578958976,-2.18712987840639,9.808711151484252,0.3878652205148929,1.5256048205254968,0.2405684101216012,-0.03010672784021232,0.0018165169705372261,-0.03307300972980435,0.030412419136661806
1752852360038295,-46448.45107579742,22812.138523778758,-81.95625716438025,-2.205757202351345,9.755002868356845,0.40877059314579733,1.5224451970270356,0.24492905658929318,-0.031036410418862157,0.007596445498496212,-0.05201261477109336,0.026944091858329192
1752852360138290,-46448.673914217,22813.111892753885,-81.91415418086186,-2.2517578004517445,9.705453757915585,0.43423390666729045,1.521201386533454,0.2512442371482494,-0.03368932942227583,0.03660761716995832,-0.06924372005961614,0.005892027128008508
1752852360238309,-46448.90407480409,22814.078287730485,-81.87063842082704,-2.3505799964315743,9.610738279802693,0.440739854737331,1.5217446823091805,0.2594304189304442,-0.03517343943576313,0.007760609425857431,-0.08505650929334349,-0.006432307647886475
1752852360338337,-46449.14322378187,22815.033670296387,-81.82680402109152,-2.428421122186638,9.485511201252551,0.4358207903820187,1.5219780643282785,0.2685662907610495,-0.03579900084788089,0.009344053045084963,-0.09443714183432485,0.0012180605041554595
1752852360438362,-46449.39013463652,22815.975039155855,-81.78343285608308,-2.5055671608886656,9.335102610422151,0.4359997552784083,1.5207013417586643,0.277973672767494,-0.036090956014703114,-0.006606334521556819,-0.09362654299399135,0.018165420967047066
1752852360538369,-46449.64271345352,22816.90158672391,-81.73960383195013,-2.5442102165544407,9.195932921711847,0.4439268923708702,1.518352368207129,0.28711581061746394,-0.0368861331665461,0.010243790394054188,-0.09213948871408956,0.01702508060946576
1752852360638370,-46449.90067579978,22817.81421588709,-81.69456283560655,-2.6178119262192587,9.055729853044266,0.4561000117167125,1.5165278139519403,0.2963152387424899,-0.03751737434740032,-0.016958640123588407,-0.09370108521788072,0.009325806591903754
1752852360738340,-46450.16485198476,22818.71188378893,-81.6482712859881,-2.663286748606155,8.906312017383021,0.470210249010993,1.5158011517979992,0.30560778090867197,-0.036583466823161666,-0.0044059643811673365,-0.09306379029606351,-2.698984065918801e-05
1752852360838336,-46450.43265516224,22819.594060785184,-81.60080615258575,-2.7033795446991253,8.732720463258726,0.47726914072780136,1.5155406792424566,0.31492523734329503,-0.03624772494470883,-0.013081716880270173,-0.08683011977257038,0.0036335692907628137
1752852360938334,-46450.70680287768,22820.45708009539,-81.55336917109346,-2.7696697971336706,8.5247435803371,0.47619932403738763,1.5141365999961738,0.3237108420937502,-0.033617458481323796,-0.03662511719106836,-0.08820640516469273,0.01945947264851258
1752852361038355,-46450.98593731491,22821.299542531524,-81.5051181940616,-2.805149227374975,8.320832332299743,0.4871408705255683,1.5109601544522338,0.3323246156385016,-0.030245462410831824,-0.04129171951733351,-0.08878915679464724,0.03315344453725014
1752852361138395,-46451.26615340727,22822.12308024687,-81.45508003970352,-2.8001359268905754,8.147333828962278,0.5118083365505115,1.5062450676665866,0.34075258272855014,-0.028267483578723645,-0.026505372440801,-0.08058710947928284,0.043666121090453154
1752852361238450,-46451.54642701531,22822.931255183183,-81.40225193660605,-2.810324365011813,8.015599841027544,0.5454518028103059,1.5002140841448244,0.3489528660581952,-0.02838839773370057,-0.012367353192734392,-0.08039762504130615,0.05991439911227721
1752852361338528,-46451.830289939695,22823.72899352889,-81.34670782883308,-2.863043245024854,7.928446886097025,0.561884896178954,1.4951812781355376,0.35722312166990633,-0.02837303357487045,-0.021814657394669847,-0.08128093834094899,0.03186146909112946
1752852361438642,-46452.11819849124,22824.519069134767,-81.2896274855655,-2.890844531816095,7.859887622652635,0.571705199560794,1.49302084603378,0.36570400601646,-0.028177663340946246,0.0015219085240595382,-0.08974248055739699,-0.002395343169098863
1752852361538800,-46452.40985064417,22825.302747778507,-81.23239001355363,-2.934475872087459,7.787465423325787,0.5648322053698698,1.4938626609714887,0.37537818546415247,-0.02872192399914946,0.006956246330842342,-0.10225938444774578,-0.02457309610582855
1752852361639048,-46452.708041994105,22826.077674720887,-81.17725631586595,-3.022258277422952,7.664744372023269,0.5376418541623831,1.496105957170603,0.3868158444164305,-0.028997001338221598,0.003185330382439585,-0.12058000397847214,-0.02378869240408563
1752852361739417,-46453.01542568102,22826.839527756765,-81.12349562661532,-3.1033637886396845,7.508767969976087,0.5317993201797242,1.4972574028460832,0.40048694289803033,-0.029298779922208435,0.008830296447538662,-0.14721588635622188,-0.005032724658152948
1752852361839944,-46453.33266582182,22827.585616999757,-81.07046503813633,-3.2109693316281533,7.3305151479813295,0.5277083340704936,1.4956167420893833,0.4165272264225971,-0.030315555673650883,-0.0072081460252363975,-0.17290123610840616,0.028792595082255387
1752852361940604,-46453.66173423656,22828.315180596757,-81.01792143316932,-3.3248268747659067,7.1695488168335775,0.5223519739399424,1.4914060009902483,0.43457956896203476,-0.03116629034991039,-0.006254093773819946,-0.18855407266087854,0.036247439589621074
1752852362041234,-46454.00305234141,22829.029187980355,-80.96443375501198,-3.4576042877154345,7.0178027575725075,0.5406913401879408,1.4876300146660406,0.4544735599171637,-0.032379885128458165,-0.0023313511518285378,-0.21076171188259732,0.02318158343730011
1752852362141764,-46454.35802875794,22829.72728440689,-80.90930223809339,-3.609627198444421,6.8687282028105905,0.5495032209017152,1.4856406429635383,0.4762740510562466,-0.031926626377801595,-0.02713042547967203,-0.22387417319107242,-0.0030812077380247306
1752852362242098,-46454.72580154913,22830.408873208005,-80.85384437814025,-3.7269538195516883,6.716315429566882,0.5462228832731278,1.485527887577237,0.4993271097892196,-0.031013287342383924,-0.00444420369155232,-0.23494789416189008,-0.011246980121459237
1752852362342224,-46455.10490083,22831.072613611934,-80.79988736197309,-3.8501646148774684,6.541550046655603,0.5314652600857791,1.48555348796385,0.5236759187773452,-0.031115889565286253,0.001265292168006765,-0.24520433417606563,-0.009858362416916577
1752852362442184,-46455.496601577994,22831.71770858276,-80.74759015025356,-3.9908201238647054,6.36614363757684,0.5151489426743371,1.485499648715908,0.5486796385960239,-0.030327062655245242,-0.018505463679144463,-0.2490394622754368,-0.009726802548281102
1752852362542030,-46455.901236230224,22832.34518221777,-80.69759748173392,-4.116382190278143,6.198729210635279,0.49589581071850186,1.4851046949075917,0.573382166879183,-0.02943657853712966,-0.018688379620427725,-0.24690716362503964,-0.0014463083909080304
1752852362641806,-46456.318295923185,22832.955969998085,-80.64915202719558,-4.240453812120113,6.048220626142609,0.47835092513667127,1.4843852601597414,0.597922933516705,-0.02827873635114056,-0.015771232392651068,-0.24741693102334383,-0.000369632617797976
1752852362741570,-46456.74695402605,22833.552888021062,-80.60181027145173,-4.349400048591262,5.916545224737182,0.4699581801725909,1.4841536417499621,0.6225082802701807,-0.027099591472135993,-0.0033343290315866053,-0.2445005719942288,-0.0034413685765827804
1752852362841332,-46457.18581473159,22834.137482825055,-80.55572236759782,-4.44999869888634,5.798698871634297,0.4557181324883309,1.48407381917426,0.6467954590138,-0.02780163062591177,0.018044922849710123,-0.24311115480305825,-0.004896309039122367
1752852362941075,-46457.63539542978,22834.71028165787,-80.5108134236652,-4.564001978005986,5.688010044945021,0.4433722792910399,1.484053133113307,0.6710920299984977,-0.029747569028904727,0.02795243518393375,-0.24279603998608176,-0.008717493567423972
1752852363040834,-46458.097022280635,22835.272087225305,-80.46771385127799,-4.688241386163368,5.574374006067882,0.4203327121897275,1.4844573590748964,0.695216631138315,-0.0318279165018915,0.020354485026663906,-0.2380975323549392,-0.013318270939230666
1752852363140607,-46458.57148142634,22835.822038896455,-80.42642044064615,-4.821392293052725,5.447147579212797,0.40799155652848634,1.4855870268966216,0.7191010866372463,-0.033502731100411236,0.02345825527375688,-0.24138914448406426,-0.01563058391270612
1752852363240400,-46459.05941910842,22836.359261683647,-80.38709153572856,-4.959322282584804,5.323257215531429,0.38327035031401485,1.4876888847591874,0.7433368736156625,-0.03381480236568431,0.014690235342312011,-0.2433200848217451,-0.02821162208568462
1752852363340193,-46459.56130910854,22836.884752163285,-80.35064031325436,-5.097715028393373,5.19908096169751,0.3490239311329453,1.4911644345640453,0.7677546852408853,-0.032485367541559854,0.002499116543693075,-0.24646364636364784,-0.03632154346502854
1752852363439995,-46460.07563532568,22837.397957712466,-80.3166220665948,-5.204269135046726,5.092379007546872,0.3313251526308466,1.49472120659967,0.7922375761996919,-0.031182484260898813,0.028595190688998507,-0.24528699225837208,-0.029008761593426184
1752852363539821,-46460.60138816944,22837.901069311745,-80.2840333778265,-5.338880463246521,4.977122329395865,0.31821248717811024,1.4969853323127782,0.8165235840699407,-0.03271088526056449,0.01912066551532982,-0.2406358624807496,-0.014482238315309353
1752852363639656,-46461.14153881542,22838.391809662324,-80.25384610743369,-5.4835000807237835,4.857109201862121,0.2865900714170121,1.4969068121360443,0.8408121145060651,-0.03432843596186609,0.013510144182564101,-0.24362799373940855,-0.0013505708797786004
1752852363739505,-46461.69706389778,22838.87157224829,-80.22660935617651,-5.644885427585434,4.751885579680992,0.2684306989012311,1.4960300163431828,0.8647414942492262,-0.03662398977342901,0.014698165347262924,-0.2370425402980871,-0.0051201956969995095
1752852363839376,-46462.268482327716,22839.34176395181,-80.20007410589814,-5.797775010781341,4.661791247066066,0.2668106352017684,1.4959839837344817,0.8885421552058408,-0.03814611465112792,0.017611845533463722,-0.23885890494535392,-0.010592065803680897
1752852363939243,-46462.854323163476,22839.803619136375,-80.17355240040031,-5.939805576739773,4.578290114018174,0.2643327593078137,1.4966005392056427,0.9124929570574618,-0.039909027740683875,0.03382284385323358,-0.23724222136104353,-0.014569880505580276
1752852364039113,-46463.4543714645,22840.256538296762,-80.14800550710618,-6.087154462543651,4.4846851484983175,0.24704653939624652,1.4967496782430756,0.936251622464122,-0.043765888061761404,0.04322654874923258,-0.23886237120370835,-0.006305160761801239
1752852364138981,-46464.07070743639,22840.699018968968,-80.12406068222667,-6.25936524365101,4.3792994656942374,0.23436101878469232,1.4962426986838098,0.9605173582447303,-0.04816017821778063,0.030019494111900826,-0.2421762750823238,-0.010686986970677072
1752852364238851,-46464.70484610109,22841.13083969717,-80.10164428656466,-6.441774443080167,4.2776692886992835,0.22213878772250314,1.4961972140066353,0.9849957436224254,-0.05172838906547398,0.03682236616183998,-0.23942106640060504,-0.014690968508022866
1752852364338733,-46465.35780018291,22841.552145125603,-80.08008448630156,-6.632966389071992,4.159180597115435,0.20878553797838498,1.4975530563533925,1.00948043842324,-0.05421127211924263,0.0296242431419342,-0.24825731924849712,-0.023917949893461236
1752852364438633,-46466.0289824277,22841.962615797624,-80.05971911552199,-6.802796863051766,4.0616046566175505,0.19681558951225683,1.4990426507856036,1.0341735943459365,-0.056347557034361624,0.03836015810979206,-0.24502022977767854,-0.019839164882002647
1752852364538557,-46466.71761849991,22842.362703782783,-80.04108001131917,-6.978687340368176,3.9532266266886857,0.17430425195503924,1.4998992954927908,1.0581197794946937,-0.059098104490258936,0.026200205117162288,-0.23185029898014003,-0.015265455039181206
1752852364638508,-46467.4240377836,22842.752884077097,-80.02442917051782,-7.158705811245934,3.854814391356497,0.16036328503320962,1.5009777821850239,1.0805862961439172,-0.061655185009932105,0.02940958113655522,-0.21898100143797106,-0.022027756315486584
1752852364738470,-46468.1480116359,22843.1332692559,-80.00927558193827,-7.327590332620368,3.759774151137671,0.14359701457018753,1.5028827277834098,1.1018360086257115,-0.06296035808448762,0.026596037242343704,-0.20999325368321473,-0.02267836545744557
1752852364838447,-46468.888758505884,22843.505706430176,-79.99574284374084,-7.492949673611614,3.688281181698082,0.1285079560181552,1.5058228723432356,1.1221035686948913,-0.06403596980985111,0.04156586164537673,-0.20092245705304246,-0.030464151611405078
1752852364938434,-46469.64530645183,22843.870406337723,-79.98332893524767,-7.63658906667495,3.6030289014458385,0.11956820249983822,1.5083060407456754,1.14146352372211,-0.0663892801359422,0.05271510021882677,-0.1940788974197063,-0.017027369444555525
1752852365038435,-46470.41644458013,22844.226745941003,-79.97162406202604,-7.788436400004593,3.5206698972279136,0.11314806922943216,1.50719563541158,1.1601655602780723,-0.07274780102193838,0.05887899857127914,-0.1848592424963779,-0.0017398336285214503
1752852365138436,-46471.20313185161,22844.574536751305,-79.96118857023097,-7.947073075697214,3.428126616221349,0.09844491995238638,1.504104440626158,1.1786613541366306,-0.08192579572091692,0.06057102110199739,-0.18565727473193142,0.00206120081341528
1752852365238437,-46472.00643665515,22844.91286722899,-79.95174600630378,-8.124773228941127,3.3359274386023388,0.09275150305868915,1.5017939847656798,1.1975565691558083,-0.09073645657954338,0.07059904950764687,-0.1939197800122049,-0.02013417004554321
1752852365338438,-46472.82794391673,22845.241295624433,-79.94310977006798,-8.306395828789073,3.226423880952964,0.08154029824401926,1.5045150448885716,1.2164614371075384,-0.09466966246895181,0.05953343440898303,-0.18544598291684908,-0.03419430621376528
1752852365438439,-46473.66809039324,22845.557687364755,-79.93611830671765,-8.498372066806242,3.091197905750481,0.05572420595122919,1.5120895766652374,1.2347683770476496,-0.09252034934301762,0.02954360025551885,-0.18170271631977264,-0.051546361140096884
1752852365538440,-46474.525315107465,22845.860629739836,-79.93131798995655,-8.638819473468526,2.971904500098174,0.038734544792755565,1.5210270100858578,1.2521352340509588,-0.08659482674512131,0.02367262408976857,-0.1572716065059341,-0.0353363992489284
1752852365638441,-46475.395222680054,22846.152402294785,-79.92735434887608,-8.758482515344951,2.8716749597330984,0.03872770515437703,1.5218593247573566,1.2678016554432068,-0.0880153101503442,0.017347519324665443,-0.15048531072830967,-0.00010242657768527514
1752852365738442,-46476.276655650094,22846.43499302192,-79.92479997743698,-8.87771337956214,2.7767015532578876,0.01518738845127232,1.513000510167603,1.281790075126793,-0.09851542357917424,0.015264618075634983,-0.13591011446785972,0.023583536754435332
1752852365838452,-46477.17211710186,22846.708827910043,-79.92293255602347,-9.031532903426923,2.702671129526898,0.031034065707452364,1.504219393130848,1.2942765901720097,-0.10809670195828516,0.010967177871294928,-0.11967652046665955,0.0006396039537254558
1752852365938483,-46478.082281902716,22846.976017880796,-79.918993713317,-9.164012891902702,2.6338423561787816,0.046219210116213875,1.5044427164993237,1.3057148609317302,-0.10895381159451331,0.0006783528407094866,-0.11107937113415037,-0.024319816237827026
1752852366038516,-46479.004015180886,22847.23636848294,-79.91410640057852,-9.265379493509597,2.5702841728744144,0.04854769589547469,1.5084361706035945,1.3160840647344016,-0.10555981420119863,0.0035825290890869935,-0.09682240468214025,-0.01634861597879414
1752852366138538,-46479.93488329796,22847.490771252546,-79.91015384789193,-9.350343866758891,2.5246270845775176,0.03037273414027884,1.512323899006712,1.325191289388029,-0.10243010295354912,0.006517425555013052,-0.08161503442013497,-0.018932625918446754
1752852366238536,-46480.874287315324,22847.739686750196,-79.90828246395907,-9.438579468617435,2.464462781611093,0.007784008807071576,1.5181528478478956,1.33333432238583,-0.09691195113203256,-0.008462073382803515,-0.07466837558890442,-0.02620504201461479
1752852366338537,-46481.82163045751,22847.98370646534,-79.90819621510505,-9.503263042557256,2.4143476683380283,-0.007054358952152103,1.5299599612319754,1.3401794860716458,-0.08517746441526067,-0.006673894089194493,-0.06172050408685303,-0.0347814134787555
1752852366438538,-46482.77447958834,22848.222611067158,-79.90968672659709,-9.546868517756783,2.3696205458332322,-0.025771035638566683,1.5441668343805854,1.3457825392768803,-0.07009309603898835,-0.019740395663498327,-0.04543311869375045,-0.033436773431288556
1752852366538516,-46483.73000410309,22848.457828040493,-79.91329380929128,-9.567850694417487,2.3416455786200694,-0.0439373411651325,1.554665472796664,1.3500886195054707,-0.058609156386814375,-0.012405252463355594,-0.03456198074648421,-0.016847683332791734
1752852366638490,-46484.68783602672,22848.690365436432,-79.91864856618295,-9.5956522676861,2.3184681255915174,-0.062373198309406346,1.5593160252912104,1.3533609644651259,-0.052496964193613445,-0.020867841748066336,-0.02263192303401554,-0.007126491250973094
1752852366738464,-46485.64862159476,22848.92136224662,-79.92513993705064,-9.623448835517461,2.3186018520213345,-0.06491622131907704,1.5620475732190937,1.3550752997751336,-0.047656357790975795,-0.012386502030369026,-0.007065896855930775,-0.0067756193729488524
1752852366838433,-46486.61192784288,22849.153360142947,-79.9318577342686,-9.651389072949808,2.329467868007475,-0.0691515215802719,1.563904121289268,1.3552313831103127,-0.04397615797169079,-0.016079095787366035,0.002305810560701773,-0.0033159821383956277
1752852366938401,-46487.57794297901,22849.388316099696,-79.93930407081626,-9.678470429200994,2.375319340005028,-0.077412100479121,1.5662748241783975,1.3541395310824988,-0.04039894320228351,-0.0055919070100975184,0.016710534308484085,-0.007342045252593313
1752852367038363,-46488.54685242315,22849.627643514916,-79.94740129540659,-9.709838629528017,2.4071105482643746,-0.08909183825133428,1.571543740191976,1.352521895050823,-0.034971268827921835,-0.006736379570693813,0.015825924366427657,-0.020398785260043135
1752852367138332,-46489.518706559305,22849.86958502685,-79.95639461553698,-9.73395398178868,2.437986343086,-0.09297013646478339,1.5786499477228133,1.3505952158415553,-0.026960761025759648,-0.006503866595711086,0.020901902308169264,-0.016645552887059455
1752852367238303,-46490.49229457139,22850.115334717262,-79.9661772860059,-9.741911649416885,2.4760781874610545,-0.10210613616527166,1.5836256478650796,1.348086393591322,-0.02159211581809243,-0.004691439858476943,0.026887799178923366,-0.004889586459875939
1752852367338283,-46491.466526298056,22850.363852840637,-79.97671996188576,-9.75105273448087,2.502736563726949,-0.10590688528382637,1.5816712709311402,1.3447265039313907,-0.02212000975860777,-0.01432729279200829,0.03419407073978896,0.01158098935536374
1752852367438275,-46492.44262700202,22850.617021222395,-79.98754992910594,-9.774296299889393,2.5562210335105657,-0.11306963171010899,1.5785676807196858,1.3402486547960384,-0.02389156623625292,-0.016454423863238518,0.04452106822702618,0.00534810305283623
1752852367538275,-46493.42152254591,22850.875308916424,-79.99872927142721,-9.803602499359279,2.615742166364848,-0.1057493216938401,1.5791099121611407,1.3354988760438495,-0.021546395084376405,-0.015522384739906588,0.04398090549298183,-0.009258197611722495
1752852367638285,-46494.40273818308,22851.1404771886,-80.00878609059743,-9.814353718772647,2.6795246201752487,-0.09970279054185265,1.5835234521194745,1.3305836287514783,-0.015909197658451342,-0.014110610992005158,0.05076043612586655,-0.008174780880674297
1752852367738286,-46495.383744418636,22851.411594409463,-80.0189001474396,-9.807504203070605,2.7400076045306383,-0.1010955725360178,1.5832292799956378,1.3249813951237306,-0.014653047276673917,-0.017948634619892344,0.059475878145080804,0.008412682180861313
1752852367838287,-46496.36363778602,22851.689862486935,-80.02862321347106,-9.792710066293603,2.827561550807639,-0.09440694984530137,1.577452550874592,1.3180519398148283,-0.018934247392387304,-0.0033799163297295793,0.0748198197717892,0.022567360838159203
1752852367938282,-46497.34339860822,22851.977938204865,-80.03843253687404,-9.80542157868501,2.940577692758726,-0.09803076265727752,1.572001269388079,1.309954197410991,-0.023918743133799943,0.0035894210733024125,0.08566061997394671,0.004576759863365914
1752852368038263,-46498.325087605226,22852.276945382302,-80.04822399965482,-9.831077076894069,3.0467343374059626,-0.09821247115999492,1.5747218481326537,1.3012335218074975,-0.02126269417175938,-0.0001531402768061238,0.0860582353775881,-0.02001603474253376
1752852368138240,-46499.30838822348,22852.587550554672,-80.05804573899094,-9.837023600494145,3.158928723669322,-0.10695303195110228,1.5837594875063836,1.2919474347150581,-0.012753004599203602,-0.0039017332067422324,0.10085944458000672,-0.022142565761451665
1752852368238212,-46500.29115441969,22852.908227426156,-80.06977901036193,-9.815767218458035,3.2624545859621588,-0.1259846537646582,1.5913613184511066,1.2814941452892947,-0.004488405925766005,-0.013155963819016727,0.11452195107054118,-0.011664433826073633
1752852368338183,-46501.27076928942,22853.240827366968,-80.0830673198952,-9.784364354512839,3.3977122206177985,-0.1361399043357083,1.591603780862678,1.2691308510576902,-0.0032629337383679644,-0.0010650685679869936,0.13236231046702557,0.009419175856054346
