GPSTime,easting,northing,altitude,vel_east,vel_north,vel_up,roll,pitch,heading,angvel_z,angvel_y,angvel_x
1739656734877762,-4.178058543681977,1.059929788958298,-0.07707586928777822,-0.0006394776693349576,0.0018195377689357532,-3.962500771841413e-05,1.4782435030128864,-1.2517729346129949,0.06704026932339985,0.0003551445638203052,0.00011232923152285227,-0.0007727172719714654
1739656734977764,-4.178101057530303,1.0600666846276727,-0.07703420045793365,-0.0007216981924389716,0.0016530931651508025,0.0015193486592068766,1.478227178606007,-1.2517779117698071,0.06702763869408564,-0.0003866729073484843,-6.52539664521841e-05,8.059690129214359e-05
1739656735077765,-4.178141567000891,1.0601192190181759,-0.07708625772383246,5.832080272433807e-05,8.436410201595521e-05,-0.0015379843820576224,1.478209698363708,-1.25180797330054,0.06705802424572253,0.0019151435972498843,-0.0006489862396817541,-0.0003958410596041235
1739656735177766,-4.178179296723911,1.0601744877001764,-0.07714741108741392,-0.0008390471950980371,0.0004431223818964326,-0.0011485161741171025,1.4782638907752572,-1.2517772417282809,0.0669848554445506,-0.003130619230006726,0.0011179013278452873,0.00022233293446392619
1739656735277767,-4.178222119750308,1.0601783577980177,-0.0772313988985645,-0.0007246417270964869,0.0007911358855380457,0.0008711670321552057,1.4782866780391075,-1.2517715638122977,0.06695641364753406,0.00013929937677329538,-0.0005011386059696065,8.977557281593417e-05
1739656735377767,-4.178304823226557,1.0601850787223985,-0.07727721909595636,-0.00020887606009635878,-0.0005261714213346552,-0.0016229963630937539,1.4782609567119271,-1.2517956677271298,0.06699856757770499,5.744705692045375e-05,0.00023570073987301188,-0.0007218149652872499
1739656735477768,-4.178370793704535,1.0602175201858888,-0.07733549705886776,-0.0010258407947736346,0.0022143564344821683,-0.0005028392088473622,1.4783601437951903,-1.2518683550908376,0.06681812020459853,-0.0005191157440528023,0.0014911703646750764,-0.0006039780008306451
1739656735577769,-4.178401331863503,1.060389000553379,-0.07741458918057598,0.00043078133417819123,0.0017957842416436204,3.275960320504387e-05,1.4784935823743706,-1.2519401839523794,0.06674814145312258,-0.0005473165943446568,-0.0006822039668183751,-0.0007286234445257512
1739656735677770,-4.178396960754118,1.060467157817355,-0.07741607440370925,0.0005267264414911651,-0.00010790875972341474,-0.000774073067697383,1.4786089927776775,-1.2518693189729126,0.06664172849191784,-0.0006014912554967219,-0.0005441213423720385,0.0003022340675296735
1739656735777771,-4.178333040022461,1.0603720114993487,-0.07741650088552776,-0.0006822817541729589,0.0007155290611664608,0.00217669214461156,1.4787043837874734,-1.251912286999325,0.0664875094657186,0.002230933419127759,-0.0009398431685342578,0.0007429249939680567
1739656735877772,-4.178320169882092,1.0603310328917241,-0.07742568335445356,0.0010102003810739096,-0.0007648838236028522,-0.0006236707864459414,1.4787656403920935,-1.2519229118424564,0.06644041539358521,-0.0016940833352828357,-7.757226908297112e-05,-0.00058824169503413
1739656735977772,-4.1782941930534445,1.0604329253134976,-0.07741516973864669,-0.0006258072058181114,0.002944684884435273,0.00025866408885061304,1.4788827722555864,-1.251902253711814,0.06632164497389931,-0.0022369152384578614,0.0003128477332930646,6.839514498156713e-05
1739656736077773,-4.178323268524261,1.0605908233909134,-0.0775019714113284,0.0009445725232763108,-0.000867171958447646,-0.0010481168132170924,1.478990083681386,-1.2519333081527504,0.06630316346649694,-0.0013139308501550102,0.0024545048047695077,-3.5885175683600466e-05
1739656736177712,-4.178370676415527,1.0605754902779907,-0.0775655431268779,-0.001325642240658539,0.00065646718167598,0.000913977922220986,1.479063926065146,-1.2519284032322484,0.06623448213489033,-0.00039402078361668567,-0.0010701979583183849,0.0017397791128583564
1739656736277718,-4.178330372266784,1.0604004780961693,-0.077601015717971,0.0015506297903304697,-0.0027809426142887867,0.00020975381266690395,1.4791087654035084,-1.2519226809591197,0.0661474400686201,0.0025750052704995277,-6.800542768946088e-05,0.00035909374452487225
1739656736377719,-4.17828518788069,1.0602799399604128,-0.07763557284419982,-0.0005825966738713564,-0.00022302224102360192,-0.0004357994280356294,1.4792388813760833,-1.2519376466314194,0.06597371820370566,0.0025580968074077758,0.0018890349999338269,-0.0007539339551993441
1739656736477720,-4.1782963215389515,1.060183370858168,-0.07767697334087764,0.00046455419368282206,-0.0016908066783729316,4.31870581361784e-05,1.47923354069464,-1.2519221346358154,0.06598889789116529,-0.0008736158858941707,-0.00010298061489639936,-0.00020976214075499696
1739656736577721,-4.178362091717771,1.0601729731188496,-0.07770631232701236,-0.0006929609755932756,0.0008639586119963071,-0.0010767143491777354,1.4792577403512905,-1.2519054626864672,0.06597730872077164,-0.0010843265964876065,0.0003394663098873177,0.0001506740664183332
1739656736677722,-4.178365671395667,1.0601162485549382,-0.07774902359288438,0.0007427515492731985,-0.0009885173423429424,0.0009362833023453024,1.4792718144892254,-1.2519045776719697,0.06596838339086024,-0.00029236817952445204,0.0010492241520891215,0.00031893562264535586
1739656736777723,-4.1783744157414295,1.0600373030846888,-0.07777158414262017,-0.0007518030958683686,-0.0005516251602447345,-0.001158438570895466,1.4792748354733387,-1.2518712059137198,0.06601184969808815,-0.0008433678693270697,-0.0012400379136404997,7.2084697877872725e-06
1739656736877723,-4.17838404426434,1.0598963880367733,-0.0778136401193957,0.00032168028458952504,-0.0006382363208398465,0.0005233551940402524,1.4792891488165476,-1.2519065414064843,0.06599547874551358,0.00206452380113191,0.0006413832344904488,-0.0008564512884539063
1739656736977724,-4.178421344937045,1.05985052120219,-0.07777962509444995,-0.00037444961316073904,-0.0009280738070069451,-0.0002945222968109401,1.479203560734464,-1.2519043244880246,0.06609587154279681,-0.0031246773110580692,0.0015478380541859744,0.0006486462520545587
1739656737077724,-4.178487460460829,1.0597813523417272,-0.07779213777523958,-7.223374676503212e-05,-0.0005872286421118254,0.0001367718927831413,1.479157504326195,-1.2518820679115505,0.06614575681700503,0.0023972610340927056,-0.0008759336660221634,-0.0010146431026252746
1739656737177726,-4.178535193538639,1.0596774679568677,-0.07777770749872011,-0.0006191006155699782,-0.0014147952538147881,0.0005102175505573149,1.4791350244682506,-1.2518777978883224,0.06615379843889736,0.0005021706491969833,0.00027344062825163085,0.0019357790110931692
1739656737277727,-4.178559786045289,1.0594611823336,-0.0777948076703429,-0.00037598017680574435,-0.001824705875717086,0.0006136496729409135,1.4790980670780216,-1.2518585337648063,0.06615689039872512,0.0014377048162437446,-0.0005674645486816632,0.00034808359691633603
1739656737377726,-4.178605295547511,1.0594340161626281,-0.07780389556894997,2.859108239494929e-05,0.0008022587324016321,0.0002868952418613413,1.4790970991281491,-1.2518605709489359,0.06616320157831147,-0.0011274706041101163,-0.00010206460549825148,0.0010715722278279978
1739656737477728,-4.178502765911812,1.0594592729505758,-0.07778450805586727,0.0020389449581340938,-0.0006831372632566424,0.0007692739248927729,1.4792227284119641,-1.2518927724078375,0.06603869111273789,0.0016774672655083774,0.001159907670544532,-0.00011666394299267127
1739656737577729,-4.178477947753651,1.0593746387990357,-0.07779999375664849,-0.0010418054430105924,-0.00025147354110564824,-0.0012429934810458184,1.47924752119573,-1.2518815828050438,0.06599130819779689,-0.0025679751129893164,-0.001359916493159689,0.00028458631278374864
1739656737677730,-4.178527790772657,1.0591950747998258,-0.07786917735017987,-0.00011735127793057703,-0.0021270314751077124,-0.000570126473283417,1.4792173305206828,-1.251862129326847,0.06600534605938464,0.0007221065944431395,0.0003638280034176401,-0.0002019956989175529
1739656737777731,-4.1785660925011054,1.0592389201024537,-0.07791604593033002,-0.0002166087933860465,0.0024960140360380813,3.3268853994377175e-05,1.4791355857594515,-1.2518622965242632,0.06609179763637202,0.00035039298500068664,0.0009833936423750765,0.00012536394854159352
1739656737877731,-4.178394662517783,1.059347831822275,-0.07788730429275742,0.003400922796588438,-0.0021468696946982412,-0.000545716365404401,1.4792565072782369,-1.2519156291713214,0.0660599538805421,0.0011188653808619413,0.002381870634783157,-0.002215223919726938
1739656737977732,-4.178329424677915,1.059241731957499,-0.07793840802741524,-0.0019586790838195087,0.0006962978319733523,-0.0015445463791606345,1.4792516675346037,-1.2519180502614164,0.06601250529728965,-0.0005418956485910203,-0.0023281889980426634,-0.0006236318501917654
1739656738077734,-4.178414560020123,1.0591485404194152,-0.0779879802871909,0.0006875323865208789,-0.00033449442094462216,0.0008373958209117292,1.4790697119812461,-1.2519183313753919,0.06617155155241948,0.0026230589804840613,-0.00201771680543084,0.0007555261006747842
1739656738177734,-4.178342036947188,1.059262010003197,-0.07795179068427328,-0.0005866907131454849,0.0040218074256688574,0.0012298130534858667,1.47922872822522,-1.2519108665788417,0.06599798251511657,-0.0007854998821509088,-0.0016608354959267142,0.0010040528118769928
1739656738277736,-4.178393411734894,1.0594098098706632,-0.07798148659427534,-0.0006440130394855166,-0.0009172678497557698,-0.0003426571290007844,1.4791854575360135,-1.2519738143234946,0.06607763659685338,0.0003846976977167778,0.001815530359608101,0.000646672148655352
1739656738377736,-4.178448236892309,1.059424571865889,-0.0779406281986807,0.000781279547467329,0.0003699758110263673,0.0006723717512059502,1.47914350877387,-1.251959855177609,0.06612055330102708,0.003519195183247771,-0.0020128315895675407,-0.0014570224720497757
1739656738477737,-4.178387366605479,1.05930113618789,-0.0779374830388865,-0.00010264537755441471,0.0005342841708679878,-0.0001291310998314745,1.4791929614050197,-1.2519660266634092,0.06598899607138232,0.000494903447373441,-0.0008934305749872764,-0.00032915409804924284
1739656738577738,-4.178327649999982,1.0593970371127976,-0.0779061551873566,0.000828693655437599,0.0006838617881260328,-0.0005011858889814197,1.4791978903674028,-1.2519639942308163,0.06599864397159763,-0.0011878563607281812,0.00198896297083498,-0.0002903122547654828
1739656738677739,-4.178391351377669,1.0596267491962204,-0.07796212025089372,-0.00023487440690006606,0.0008721036199255543,5.965694582643782e-06,1.4792212587356695,-1.252015123214953,0.06600188838639943,0.00024317850078515952,0.00334559436246038,0.0006388578097178779
1739656738777740,-4.178441044529996,1.059636842927603,-0.0779605731215622,8.586255541737046e-05,-0.002247852225563661,0.0012904500155905068,1.4791693609848418,-1.2519377231175564,0.06607186351673312,-6.975665620685235e-05,-0.0009131899325974162,0.0009091212264893644
1739656738877741,-4.178395228487677,1.0593346907683274,-0.0779215034637087,0.0016424510130514315,-0.004661494873162895,-0.0017153215153561721,1.4791471865917258,-1.2518255656524304,0.06607024291810122,0.0008825508286159712,0.0002407675411748305,-0.0006641508873241737
1739656738977741,-4.178363871458042,1.0591253917293861,-0.07798575505805488,3.965997009015495e-05,0.00023172679681667348,1.9115749780172457e-05,1.479224235294183,-1.2519135213794321,0.06594646184426507,-0.0015699857885995807,0.0031300364720720235,-0.0017836625179474467
1739656739077742,-4.178503262496364,1.059092491664824,-0.07800528251312554,-0.0033919450585097035,-0.0007439291766236654,0.0005517971881572573,1.4795404484522785,-1.2523481574384612,0.06591437000665937,-0.005201531829659821,0.0029956917159280074,0.0005127334122510141
1739656739177742,-4.178687822342122,1.058874773610705,-0.07791003092763985,0.0008060191526376117,-0.004602611042200472,0.0014688713176590027,1.4799376833531568,-1.2525764570420235,0.06568050856983254,-0.001133452425437563,0.0035455952725715876,-0.001129812344747884
1739656739277744,-4.178612031923229,1.0587467894701736,-0.0777396204350964,0.0015597546815117058,-8.925366926765281e-05,0.0012686121702951293,1.4804924352653501,-1.2527223021561609,0.06523704390740567,0.0007654971148400781,0.001713740803294357,-0.0014578617717865912
1739656739377745,-4.178609502875742,1.0588034891023308,-0.07780509922159322,-0.0006182764494012639,0.0012186817399011467,-0.0007464953583000591,1.4809486138919905,-1.252972354610569,0.0649619847408651,-0.002848446395484556,0.0028329422934566147,-0.0014380711266470732
1739656739477745,-4.178728379723151,1.0588461335227997,-0.0778802487634182,-0.0022321640904620467,0.00040192594164256093,4.5781980581999254e-05,1.481200047883103,-1.253144571358481,0.06490403725819914,-0.0015865201804517483,0.001964590398429515,-0.0001404999642519103
1739656739577746,-4.1788436688965565,1.0589379884866794,-0.07783201526256917,-0.0005424886248508145,0.0002973015792270584,-0.0007835599127320487,1.481240886855122,-1.2533571478820045,0.06506043390583877,-0.003683360826370628,0.001379732730094281,-0.0012827269490412595
1739656739677747,-4.178862514546404,1.0589713863127261,-0.0778450872014658,0.001540440740113159,-0.0014120529208510161,0.0008398798652160174,1.4815444469601986,-1.2536137770543023,0.06496163491835281,0.001991522540315402,0.004596116222008014,-0.0007770669070996071
1739656739777748,-4.178827404110283,1.0589023251720149,-0.07783854334717986,-0.0007346778040642029,-1.4528098524758575e-05,0.0006914485496878895,1.481728330328299,-1.2537691018080248,0.06479892503475879,0.00034804821894100524,0.0018020368642217253,0.0008759922826018173
1739656739877749,-4.178756627491423,1.0588492455169498,-0.07792566792035119,0.004042383617783551,-0.002514022726791917,-0.0017693432738927109,1.4813578214774252,-1.2540686532961693,0.06518713204540882,-0.001961394407830377,0.00740808830322692,0.0021254930407233123
1739656739977749,-4.177804421031854,1.058859538337888,-0.07797684823423245,0.018117815943190053,-0.002356958921880799,0.00038440591727101353,1.4806105282453865,-1.2549287625994414,0.06599036292354946,0.00013211433736284373,0.011720626038948162,0.0012616234252918101
1739656740077750,-4.175198855692691,1.0584475894228746,-0.07794275430388113,0.03693311692924602,-0.006190443012732834,0.0005523945298170292,1.4797068765030372,-1.255880412943677,0.06672708200856749,-0.0006630882574766736,0.010679266291648315,0.0031492095479154322
1739656740177750,-4.170436730800538,1.0578998404784494,-0.07793028067946821,0.057424588562930125,-0.001476540822593617,-0.00012578386016024563,1.4785639875272247,-1.2567816862057029,0.06742187224790168,0.0011976316006486955,0.00919952617239187,0.002962475100486192
1739656740277752,-4.163867280224296,1.0583825145719803,-0.07785388040454544,0.07149846363704505,0.010027945775232439,0.003214994754774927,1.4781053532100885,-1.258029433102249,0.0676430299813676,0.0029112442898543063,0.013725001848081755,-0.001442768166958699
1739656740377753,-4.156652917339799,1.059796610523825,-0.07766976153410692,0.07536917237254091,0.0150631635667776,-0.0007580828506427916,1.478409438378087,-1.259513888325112,0.06776782806704555,-0.008965365534745987,0.017266007501417494,0.0005565792369293989
1739656740477694,-4.147714065553353,1.060749714776032,-0.07780383408056869,0.11132642913983161,0.003086328347850939,-0.0036377529395927193,1.4755396404873642,-1.2621732330088826,0.07137286004792606,-0.006840450241545661,0.035903346491965436,0.011731439855120705
1739656740577700,-4.132840659204509,1.0605399094965828,-0.07802703313756224,0.19336436273550694,-0.007057285150927517,-0.0007496014279568532,1.4677103680297363,-1.2667291766708655,0.079245401856128,0.0005031567042902648,0.055634205038424964,0.023554707939826006
1739656740677636,-4.107993877163971,1.0598101077515807,-0.0778891344169455,0.3092538031485126,-0.00502902183437359,0.004684689181905468,1.457375853049933,-1.2728845724612312,0.08902934102270989,0.0006398966414027052,0.07534691663941691,0.024858623815949683
1739656740777581,-4.070657540830384,1.0596260078263087,-0.07663453918674631,0.43906375457373226,0.005868193839303139,0.018197430711981412,1.4459626907227614,-1.2817214108391606,0.0997121739139972,-0.0017003658604603307,0.11193912490800197,0.020545636501327878
1739656740877504,-4.01972413634904,1.0607898808407137,-0.07396028974730132,0.5838245314985898,0.005351967795682931,0.03078010868339477,1.4331621387730866,-1.2947996780833662,0.11373013634542382,-0.022302869729240237,0.15258527019695348,0.013592426896365898
1739656740977409,-3.9533585812720053,1.0596233071776529,-0.07118977598802767,0.7414721499143638,-0.02269195462498171,0.024566695548270172,1.4225075274651466,-1.311749791930291,0.12531457042408328,-0.015504408397320816,0.1911068508466259,0.006825094424785997
1739656741077302,-3.8712399778300197,1.0551372617845152,-0.06958017533309718,0.904901758332055,-0.06470025582283677,0.009019537387413817,1.408568491785996,-1.332448512751419,0.1396110394436094,0.0035584539682521794,0.22128871163303052,0.006424958901029557
1739656741177172,-3.772255408584257,1.0476070905414083,-0.06870534421275351,1.0664284038944836,-0.07147637635146019,0.007717929085675606,1.3909032818974594,-1.3543993405333645,0.1552852421233852,0.017464457593367476,0.21562892008863085,0.0016133013424220462
1739656741277048,-3.6580953447036206,1.0422251105658633,-0.06821407183928464,1.2107351506577075,-0.026683933786082005,0.0035597906150026267,1.3772020303143548,-1.3759315677431971,0.16861421349819286,-0.018081005263805634,0.2166879208864832,-0.014068647175860958
1739656741376948,-3.529883715932246,1.0421874535994955,-0.06835644776971374,1.3525233167827053,0.02094195808273994,-0.006384520153990126,1.365344270862515,-1.3982806045665326,0.18362905132284355,-0.046099434541519685,0.2325408800209696,-0.023366910452102655
1739656741476850,-3.387957842157723,1.0448404770748236,-0.06902049991606926,1.4867860777646427,0.01361776452974872,-0.0045859941428626405,1.3554335133030766,-1.4212521104654872,0.19864504714668565,-0.04786576430855056,0.22980484425468872,-0.0291399074017726
1739656741576780,-3.233354286187257,1.044174783695785,-0.0687255619088821,1.6045719301399544,-0.035142659591620086,0.00785603274817633,1.340692898373988,-1.4432541679748048,0.21739109946257554,-0.03834848519057871,0.2175499063612426,-0.024263512044370338
1739656741676724,-3.0677757210671195,1.0376336599199467,-0.06729216905443013,1.7028761846049918,-0.09725341180523363,0.019619611307212417,1.3096406234700657,-1.4644890699195419,0.25033629932976853,-0.010146303523226092,0.21828598993104822,-0.0029436828178519433
1739656741776684,-2.8934614679581667,1.024439836867209,-0.0648380946364194,1.7878905978229265,-0.17197684021739112,0.02859495696828687,1.2362802886971793,-1.4858284377998683,0.32335502494881246,0.015700450770954107,0.22953449704092224,0.013753542626750515
1739656741876638,-2.709681086288236,1.0040200607010086,-0.061933163319125475,1.8963909538720818,-0.22403791750565158,0.028632635924116173,1.0910101671677013,-1.5062624164514697,0.46585918422132433,0.02638243206292593,0.2207988638577183,0.026209046945990612
1739656741976579,-2.513666417425885,0.9813396986091969,-0.05947080047154481,2.032195630587131,-0.22800758900988627,0.019957930023680417,0.850160446642228,-1.523270045279957,0.7049350694843534,0.017846082399515892,0.20848929478801717,0.006964366799124378
1739656742076520,-2.3029470014927904,0.9579951512550565,-0.05749806357987625,2.1853830380847397,-0.23673730469172455,0.02267235655409197,0.48532042794657393,-1.5364391547984018,1.0682581969523137,0.01574855267367899,0.18900922831102837,-0.01632281737093169
1739656742176467,-2.0777521300268393,0.9360317116902408,-0.055517476918135536,2.313742061618722,-0.20091231176862023,0.0108886130523245,-0.04172018910144939,-1.542612862485649,1.595575501449913,-0.03719044839962033,0.1606646642731967,-0.014349813857107952
1739656742276426,-1.840999617153056,0.9152099978079739,-0.05493902068996426,2.424952335952646,-0.2419176587324511,0.015119276808054765,-0.5442198930752655,-1.5389439714725692,2.100494115539211,-0.003536215259448202,0.13791160306866262,-0.009386932911611238
1739656742376386,-1.592087835880403,0.8874695014489395,-0.051390101787670533,2.5524436290604564,-0.29562545693885667,0.047065492935303294,-0.8605876346738093,-1.5319765861101673,2.4153301080246754,0.009165301304383188,0.1224710127643812,-0.02678546094481858
1739656742476381,-1.3313037013292095,0.856484086935713,-0.047071035132449854,2.6616496007329506,-0.33045382997513384,0.03634635035246008,-1.0488434600104601,-1.5235647079982437,2.602162482334092,0.022243536752473758,0.1075697601828111,-0.005557054663870952
1739656742576351,-1.0596561500319892,0.8225139284856322,-0.0443199873696464,2.777657856459625,-0.34125486176103575,0.020860286924765273,-1.1393682187094878,-1.5148489329626205,2.690103312232128,0.019755051126967165,0.08991939366164187,0.010389392873536865
1739656742676317,-0.7752844624013882,0.7877748842412217,-0.042137230145530634,2.9146204270051945,-0.3541156434789667,0.022269926808596394,-1.1936111920457129,-1.5078819241004089,2.7418597810068754,0.02069722022765279,0.06071761495924404,-0.012353777851665153
1739656742776321,-0.4766159040129037,0.7522833983657902,-0.040067607184205094,3.0569286837970338,-0.3363082191155067,0.019425162522872356,-1.249949132192317,-1.5041203318192027,2.795687490827305,0.007199041926824802,0.03439367740900706,-0.02697908858463753
1739656742876280,-0.16501105911968678,0.7217561594748214,-0.038127891907239655,3.176633526127647,-0.3033334807958695,0.015807132027216432,-1.298527569000095,-1.5023330872183767,2.8450931343321484,-0.0017233516019153244,0.015603112916031012,-0.020461820191305255
1739656742976274,0.1571425973353341,0.6912018262277765,-0.03625493260214413,3.2707682438393557,-0.3071726987275998,0.023181479724711775,-1.3148676473241234,-1.501891277399366,2.8606829594134107,0.01815468225086672,-0.007274462616905153,0.006105840330814298
1739656743076254,0.48989221292125446,0.6627918611985311,-0.034200387151070155,3.389905174966271,-0.25866816590607644,0.01696092407975756,-1.2891242665241425,-1.5038082100345822,2.8340302177648953,0.004407086167966755,-0.03685193109629888,0.009353651469809697
1739656743176246,0.8356820797114268,0.6398993361119546,-0.03232494078884062,3.524806742849109,-0.20755823301318604,0.018438955501290575,-1.2523754473213864,-1.508344983141841,2.798471352688691,-0.02195129272818642,-0.05699156608623976,-0.00032497009110350457
1739656743276244,1.1956793763754563,0.6223429437198285,-0.030274145850969804,3.6741068306215587,-0.16412561435292283,0.019021875282718,-1.2289026127821803,-1.514151226159436,2.778407006556142,-0.03632533543020566,-0.05189307804348652,-0.01618898004513967
1739656743376245,1.568385344784044,0.6021034772833127,-0.028170391903308875,3.776438124358592,-0.23420619826927286,0.020392451119174496,-1.2219750295735023,-1.5205072197097786,2.7713969055967977,0.028448152596285452,-0.06417557796856686,-0.01707016524692155
1739656743476245,1.9506170139836319,0.5789910972069299,-0.026913810343648883,3.864223867512122,-0.23680323750152013,0.0057669196324407895,-1.1754850977451956,-1.526734931798451,2.7228574105634302,0.025870142922854087,-0.06323806030713677,0.006385752873151502
1739656743576226,2.343098988804996,0.555769625216276,-0.02659181897273802,3.983325318319901,-0.23516512687848562,-0.0008544523549216904,-1.0811530386945274,-1.532226884662557,2.6252320447622,0.04463206132001261,-0.07081700194878278,0.013765594283383116
1739656743676221,2.746204412520994,0.5385796115332845,-0.024976268653742896,4.083429486841693,-0.1158932567103519,0.039665119081070406,-0.9380918787768996,-1.5382830418604887,2.48063294274623,-0.022713746601276577,-0.08667995028527296,0.0032537446840505634
1739656743776219,3.159849217041532,0.5330743670459961,-0.020427004569045323,4.185283651385796,0.011933184073316871,0.04769948644814129,-0.7475146490697662,-1.5454448472824769,2.2943157875773106,-0.06574494214414714,-0.09255364890295684,-0.010325326865384708
1739656743876220,3.583298981488273,0.5373914696676876,-0.016874618998641927,4.272031383214628,0.0558849106444521,0.028120384557801477,-0.4588035403659527,-1.551445281169961,2.0121665591725915,-0.04590556389111007,-0.08413755149097696,-0.00170746781436919
1739656743976221,4.014370436194777,0.5442430878591014,-0.01589679064595753,4.349184858740858,0.03503047733465935,0.006059348902079553,0.06841786514970169,-1.5532586919897908,1.4899708324916812,-0.006105437624889839,-0.1126970330116494,0.0006000397932185619
1739656744076220,4.45408720556165,0.5448813647774987,-0.014890975199185155,4.43075508152177,0.0013250538273351228,0.01709495537725481,0.619098434029336,-1.5497133054531882,0.9382459748609496,0.031597119719897565,-0.10923257146517339,0.004074365992130614
1739656744176221,4.900323147917304,0.5470299639659986,-0.012683778245508232,4.465816790520336,0.030316701736894977,0.029926677996248572,0.9236215354734704,-1.541976432737129,0.6318702331515881,0.03014368865385389,-0.11157100935427446,0.015414398892655718
1739656744276222,5.349328374134636,0.5550029354656301,-0.0066255466660852524,4.499817586142782,0.15279784602720703,0.08517204267436826,1.0459759568487983,-1.5323841771492748,0.5083837148462154,-0.0218287142879957,-0.1003266159402663,0.03253464123470871
1739656744376224,5.801491191640834,0.5765606300729129,0.002285755761965602,4.549832578811766,0.2659607897267512,0.08290241928910959,1.0815268571004557,-1.5215842416206493,0.4772346119193759,-0.06247969113123206,-0.10226400437168168,0.042503903265149655
1739656744476225,6.259935554245782,0.6053016627539614,0.01024204641472437,4.618216731977289,0.308156772970568,0.07728310510227769,1.0944195375362746,-1.5101049006840839,0.46847373204648857,-0.020332853637271962,-0.10142179121781547,0.044212706383511866
1739656744576260,6.72564939040295,0.6365054006407971,0.016108347616459504,4.695387497065437,0.3121447775109993,0.05058250925521306,1.1067771428132438,-1.498558729727275,0.458188410547,-0.006760282140112382,-0.10925833895618874,0.047127438268711394
1739656744676258,7.199535194385055,0.6687844479250487,0.021261681871108773,4.77665487017881,0.3436288929317261,0.05482363980026273,1.129615192774799,-1.487142409425908,0.4354265598824789,0.013496259899504969,-0.10250078785528581,0.023268538200673247
1739656744776298,7.682283939057364,0.7056640687205628,0.02898795659031475,4.869876773648949,0.38181406077349117,0.09554098137490415,1.166631761454035,-1.4771122756984227,0.397912437533686,0.007909327581157765,-0.10598368331044593,-0.0018834080193817304
1739656744876308,8.174365491639065,0.7496573438026262,0.04090611377794402,4.963635216134131,0.490414980368991,0.13612373131110478,1.215937072118182,-1.4675070344678767,0.3487578546698332,-0.0030181331196346677,-0.10481388577873017,-0.01686700597459858
1739656744976309,8.674177978213857,0.8023871065050514,0.05497248930991469,5.020624803733056,0.5709237784810447,0.14089619645845575,1.2581565972560875,-1.457645930512907,0.3078778777188318,-0.023853771221453903,-0.11141325276889573,-0.0018486746285180944
1739656745076346,9.18024729717403,0.8628911172473007,0.06773562405549512,5.094517439872957,0.6398169062355875,0.11962184482904824,1.2803199561269332,-1.4470926060065756,0.2881295744959571,-0.030278116899682957,-0.11033371705927054,0.017276844768762796
1739656745176376,9.693790452465166,0.9298658801272375,0.07905638349108711,5.153375695101225,0.6934384777640067,0.1172623794426596,1.2923569857355672,-1.4358248351550444,0.2786271778386475,-0.019944015136611225,-0.10562118120669012,0.035629938703833845
1739656745276374,10.213039609481553,1.0011654483895562,0.09168615286871681,5.241662116791713,0.7447836988976175,0.13666016346920054,1.2896299006324234,-1.424131329226739,0.2829942014347349,-0.030770515041733643,-0.10690901783784475,0.0261961699300002
1739656745376405,10.740423046224969,1.0779121924637782,0.10718995744077267,5.308762129510542,0.8036533805286276,0.15875637398113904,1.2852952791457999,-1.413910609416448,0.2889116410497384,-0.021257794495480705,-0.08789900876803364,0.028693445447405243
1739656745476402,11.277262556704219,1.1596456361483565,0.12347590057407373,5.4304930803433145,0.8347568157476223,0.16831049379660676,1.286742878643985,-1.4060911303558425,0.28907862571213905,-0.005442387719287119,-0.06990617184232288,0.01446579975757709
1739656745576403,11.826191061947464,1.241776147091064,0.13823846169319254,5.536323670566519,0.8196470479397769,0.13034967063897598,1.295987252819736,-1.3992743578101567,0.2781504151703211,0.044407253551059435,-0.07321237395632228,-0.0006357802068309744
1739656745676404,12.3876889822277,1.3267032610947997,0.15120355535025165,5.7173541780864445,0.8713674525647077,0.11832033554092558,1.3167595264112266,-1.3925931217841458,0.2545797308010087,0.02669633563360416,-0.0726325387309742,-0.05974963927942254
1739656745776405,12.966568465989077,1.420726863831044,0.16204708255327144,5.833017769125518,1.0236731045917034,0.1256932919052283,1.3754828584894634,-1.3881684037296014,0.19668720037807957,-0.05551636831315974,-0.06555225693158882,-0.10449957089904295
1739656745876406,13.547566854914416,1.52808232225319,0.17853574519928178,5.786185632778737,1.0768366398069724,0.20842613639134852,1.4181824841308814,-1.383664311803334,0.16161681568491612,-0.04864412758402622,-0.05384418534669934,-0.014001106476516626
1739656745976440,14.124716879344296,1.631045497087687,0.20243996050190688,5.764613839414576,1.0115431491924363,0.25067092285829834,1.402774249503502,-1.3776561882789962,0.177579936302935,0.010122059530471059,-0.05570747573380913,0.07892577312835244
1739656746076436,14.704715236289102,1.7337340076231444,0.22568765708945993,5.8458256916397895,1.0290670405125852,0.1969232636828625,1.3639719457024477,-1.3704088540409134,0.21548542220890018,0.026003566668098846,-0.052103573857846794,0.10040035159947555
1739656746176438,15.29377371654053,1.8372907494511004,0.23813722997003123,5.9336118956162895,1.086860315060469,0.07053839517599267,1.3217747401997118,-1.3628963116131578,0.25407620975630035,0.004391033517316834,-0.04801221904394809,0.09653910170589133
1739656746276438,15.893947824552509,1.9543133519101987,0.24730499441986767,6.084164155384801,1.241283567673735,0.14072418720678195,1.302006673184608,-1.3570848956375798,0.2758295779357941,-0.028916668374828116,-0.03905408265791873,-0.004757046873373625
1739656746376440,16.51250854080149,2.080445001184328,0.26825449862144757,6.267577180093882,1.30298160215764,0.2728261517458985,1.3351588484610737,-1.3538937664043837,0.2463196872097562,-0.026813443595786534,-0.05449137825355546,-0.1032252758837458
1739656746476441,17.14277355677676,2.2114871225887005,0.2976932802519966,6.328139683103828,1.3081183924325082,0.2926672610868728,1.3871204843901037,-1.3511007122244263,0.19858148084534008,-0.005685682441463631,-0.049959145981181105,-0.09075945414029048
1739656746576441,17.77522153660855,2.34122535180785,0.3243032408572457,6.318348765677756,1.2877951029231742,0.22661929063339448,1.4124590084412103,-1.3474341687212172,0.17330769184361242,0.015456340175057233,-0.04891604111386731,-0.0012757071031275619
1739656746676442,18.407521716835223,2.4698455097182874,0.3428856716972485,6.336750206971063,1.3098558387701558,0.1527484960731015,1.4034077334513848,-1.3425683907293227,0.1801125803614787,0.007105951842060383,-0.04595003763960174,0.0439554023750293
1739656746776443,19.045130971429412,2.602274781344266,0.3564319438860923,6.428205350261788,1.3379997800793768,0.1281015554281496,1.3861089416872385,-1.3382847912346774,0.19604136965159055,0.015639856855294756,-0.02549484231386156,0.0303695263156967
1739656746876444,19.6941880436571,2.73932770732169,0.37035251062676217,6.552327948443834,1.4033893172684722,0.15067043957168272,1.3861682608410713,-1.335714676159288,0.1950813625564557,-0.00012023862657156362,-0.026672429440262883,-0.01783075344229075
1739656746976445,20.355168734844163,2.8823937866688487,0.3865675527071211,6.662827825802471,1.450777249543612,0.1762305485129158,1.4091372302934833,-1.3339141423457201,0.17304975304622788,-0.017260730066046184,-0.033079625930440344,-0.06628741984222843
1739656747076445,21.023550143138433,3.0300930658735936,0.4055718491100246,6.698430088762841,1.488311284688665,0.196584853794969,1.4369203009030862,-1.3318920681385586,0.14727443584168579,-0.008997211104487795,-0.027661056582100982,-0.04333269373875691
1739656747176446,21.695223876812257,3.1775044777305346,0.42445458118751905,6.722139562695529,1.463516656366606,0.179549359197929,1.4492701467967113,-1.3301467609417577,0.13486907184254224,0.014643288925392874,-0.007504667683863434,-0.007629219613430684
1739656747276446,22.36734264442228,3.324440132398812,0.4415481503923169,6.731674880859593,1.4725001896064356,0.1489540421749325,1.4369895265412933,-1.328427557100604,0.1464890304949275,-0.00781317080229961,-0.003137291179375729,0.05536034358831305
1739656747376448,23.043595805093364,3.4747770823252755,0.45568026295132336,6.810156016881794,1.5204860662032944,0.13204998239128113,1.4135747399289196,-1.327659324617138,0.17103657566819364,-0.036393254225209094,0.00711842732713973,0.0511865396428882
1739656747476449,23.730371635360587,3.6277970646537434,0.47067213456269186,6.9294290478294664,1.5286656958043676,0.15509616686365243,1.4018150108143486,-1.3283695064432566,0.18421176223454178,-0.006686374647969519,0.018244386899972157,0.015058100629299189
1739656747576449,24.430293602066072,3.779474230509898,0.48689265251949554,7.067450564740411,1.5170958686963318,0.17965325710682215,1.4096275764130803,-1.3291419041660408,0.17658945592118702,0.011884073931651147,0.0008615263161397323,-0.04846206453023241
1739656747676450,25.140717863945373,3.931461073335166,0.5065936995388286,7.106860820997515,1.5009801873131494,0.2214316739624577,1.4320172954061103,-1.3300720732988551,0.1542696138409889,0.007447822413847066,0.0039819194276615585,-0.02190261382958165
1739656747776451,25.850544868125827,4.081380758875653,0.5300352288836022,7.094773137621651,1.5042813266312278,0.23078423601722203,1.430635555364528,-1.3311404972139271,0.15378471552700002,0.0066958313147197825,0.021165724466431186,0.01715283694260974
1739656747876452,26.561675238855276,4.23298463626662,0.5508389419320897,7.123750636820827,1.5151327384849123,0.180050461640148,1.416402949936397,-1.3319051970432743,0.1675290625345579,0.01151816393330587,0.016875632641571492,0.044379089155301185
1739656747976465,27.27652913974394,4.383770720622802,0.5669499624541511,7.161204095899168,1.5087140869117535,0.16093986022498563,1.397647145170848,-1.3320158126074724,0.18486798727711898,0.010076364845406258,0.012021716568141676,0.056190334131171533
1739656748076470,27.99853567307522,4.5342295094192115,0.5864117391832155,7.279380004961453,1.5170706990879834,0.23722957141393397,1.3936110084593571,-1.3327231505452557,0.18684872618073625,0.0046720973094734495,0.007082398585434867,-0.030473477727279277
1739656748176470,28.73212018344914,4.687591163009416,0.609567254859465,7.381685214702395,1.5377944093688527,0.21768285055421593,1.4180220978342457,-1.3342061234613183,0.16202930040212382,0.03357105737444501,0.003939378239858823,-0.08114753637890429
1739656748276471,29.47287657510412,4.840830998291256,0.6286519545933824,7.42646674376693,1.526849180695267,0.15331555541026956,1.4505404741448655,-1.3357656271650487,0.12777502605372484,0.023247878450190794,0.0016953213473842154,-0.0748829092012082
1739656748376472,30.21585178051942,4.99509930905675,0.6429881343871926,7.431431124706886,1.5312249517596435,0.13222187563610205,1.478290880873155,-1.336533280470811,0.09896876717859837,0.049605595646451964,0.0033257949923617197,-0.05921718102161933
1739656748476472,30.958730731441957,5.148801984590287,0.654436192499108,7.430489283944318,1.5584176488006125,0.09203906014944135,1.4948110145942066,-1.3366965492576373,0.0805132719890746,0.009808445781618654,-0.006767145104026458,-0.034583649634893576
1739656748576494,31.701432854714163,5.30563148708561,0.6614961071036118,7.426024409340043,1.5800760247735925,0.056625410789266625,1.5012793114739702,-1.3364344197904896,0.07339636129151694,0.009335360910884733,-0.0037334245047991794,-0.0010599380622940383
1739656748676524,32.44426139816195,5.463756024217902,0.6657733935698722,7.441897856814657,1.5799799054802157,0.03313809478476785,1.499370463982707,-1.33583097683932,0.0748801497327595,0.00775760157952131,-0.008035060704197195,-0.006548769830500946
1739656748776522,33.19157426683292,5.621307405886746,0.6706879917452354,7.481409545564212,1.588055639514934,0.06777640122079247,1.5065862384418174,-1.3352322624266413,0.06635619753064115,0.0018201138501879642,-0.006396136864110032,-0.01725891788903868
1739656748876547,33.94022231391794,5.780320918066956,0.6770008583542948,7.487684208894223,1.6162842046325936,0.06467455800174243,1.5103446744035767,-1.3349364826648438,0.06209267234435596,-0.011350600506143685,0.001119830980026864,0.002150236016694859
1739656748976554,34.68992588844365,5.942314322734385,0.683460284482662,7.517065614899055,1.5913573100632918,0.05281420139785098,1.5111999042029975,-1.3351166324090928,0.06213950964398996,0.012064098332415254,-0.0011361658630199651,-0.008004313412597606
1739656749076558,35.44168005749424,6.099264359250538,0.6887572279422784,7.508832119369888,1.550833584822543,0.052712234793326034,1.5079048116080604,-1.3350671156196197,0.06265883726778111,0.023662584334634442,-0.003864123581519022,0.015112697568842143
1739656749176558,36.194213981893554,6.252987342159227,0.6950523812018212,7.550000673529672,1.5490432604385382,0.05875946810890564,1.5037150628841591,-1.335850993979899,0.06312611709189574,0.02810789614218802,0.016231261648211127,-0.014547292607621392
1739656749276582,36.949852013659246,6.408761525102733,0.7003345323057032,7.5551154182206215,1.5411468634329804,0.05139449625362866,1.5123438083515885,-1.3379874555660793,0.05310943498732527,0.029059578338220943,0.03360639583167249,-0.016489649432929878
1739656749376598,37.703862474134084,6.5626069273964776,0.7052043500808717,7.525812099335188,1.5273593372905045,0.05818994906039116,1.521595130512057,-1.3402035907776109,0.04216094947294402,0.014418604131314404,0.01291908415180555,-0.017117749278036016
1739656749476602,38.4561920044599,6.71323745721251,0.711484314843026,7.50088257025765,1.4999971873334765,0.06259793524438996,1.5327208701670127,-1.341641052639927,0.02874522744294583,0.023794805433112312,0.008296437719737973,-0.015353393791826259
1739656749576604,39.202779058898344,6.86464511296564,0.7157436642968538,7.43938948099217,1.5052987345162576,0.02884298680434675,1.5305811775350704,-1.3425167838735568,0.030488734536121477,0.010057106481939729,0.007209185193967863,0.0200363210834015
1739656749676654,39.94598578294996,7.014684908804246,0.719127245399323,7.419793917182123,1.489510798238013,0.029052316826971587,1.5204268444289406,-1.34337458802735,0.039690185588375705,0.019415789533543067,0.009173631647464212,0.021459208040573857
1739656749776664,40.688249889756115,7.162503827861177,0.7224966021323391,7.426454812567916,1.4812453569183055,0.03421211373952815,1.5135627952873,-1.3439771578802417,0.044116229861453894,0.01369852901495003,0.005288088370398956,0.0001790192235674243
1739656749876668,41.430022619492775,7.312896216816929,0.7263659254835129,7.406210174479475,1.5337781405628983,0.04312055994318256,1.517890607615015,-1.3435424332332113,0.03925442565147294,-0.025077610113917705,-0.009137751540487082,-0.03090837560258118
1739656749976669,42.16826367398369,7.468377006904338,0.7318389640851239,7.363253813124848,1.5680453020835166,0.054781937733177716,1.5253289337369573,-1.3429751648946897,0.034545114259480474,-0.027682449586088377,-0.0010446698939584717,-0.026947031861398994
1739656750076670,42.903764472478144,7.624626960283593,0.7367054901450559,7.35625809842496,1.5397674510493748,0.03202567103657246,1.5336788573243494,-1.342241672260669,0.029048818294530477,-0.0036514587381791847,-0.009473106813917668,-0.016542409426895287
1739656750176670,43.63716495832595,7.778169049361965,0.7376472789217814,7.305433169208293,1.5306573205153948,-0.002242973052333335,1.5468440784338497,-1.341229201707819,0.0169010734206602,-2.544123140141973e-05,-0.010348500594112756,-0.029323869816537
1739656750276671,44.366314725712044,7.930882218201723,0.7375391777425132,7.272911856006359,1.5376021396438189,0.0002566020297611888,1.5569702406005186,-1.34064432380399,0.007472552993639422,-0.01646474084780176,-0.011324966953370012,-0.02428700130742549
1739656750376672,45.0909003716267,8.085124298129632,0.7380849149022433,7.218491033243566,1.5283470387296827,0.0003471413479905482,1.5657363239572974,-1.3405904607133767,0.0005300530024804923,-0.01467238402075256,0.0007358682469073758,-0.00944407025669533
1739656750476673,45.80992725230282,8.23751340209454,0.7368995170575846,7.162559571809602,1.5106452341680034,-0.024270827071384494,1.563557737829465,-1.3402584392687742,0.003443539041617137,-0.008335444023538386,-0.006057557122006934,0.016551410665519687
1739656750576650,46.52489071070803,8.388018919240558,0.7348100723924403,7.1420289278232385,1.5067900414918938,-0.018776788463687268,1.5576345580173938,-1.3399342331379116,0.00942247420625212,0.003345050213024618,-0.003138784783781297,0.0079911156505231
1739656750676612,47.23829329653834,8.540108654760358,0.7324337296238063,7.128812550068983,1.51832438525786,-0.02456648037903138,1.5586100783959262,-1.339794016732967,0.010377838469176871,-0.017220407496563086,-0.0032307086407405267,-0.00972684041155118
1739656750776604,47.949383203913236,8.691935055872918,0.7314423382498028,7.084760632932,1.5255416918157672,0.005694303660559463,1.563037972165302,-1.339666705531441,0.007652495281111967,-0.025305349343674684,0.00024253773790753588,-0.003311698114961863
1739656750876560,48.65524264773086,8.844941560913222,0.7321219677403282,7.056429036039689,1.54403654362258,-0.0010613464223390183,1.5614064087470914,-1.3390946480568808,0.012594109750584578,-0.037432811153024895,-0.004234214153874523,0.0029488356093060066
1739656750976552,49.36184012266071,8.999439070449505,0.7286382594173259,7.0970545329547345,1.5275586150979323,-0.08492889379555423,1.571048789184309,-1.3384551543047283,0.006640697178273626,-0.015718521421900358,0.0019993533441853176,-0.04350913573128082
1739656751076550,50.07035368661502,9.145874829508648,0.7206890465220219,7.070643901792309,1.4363377552598315,-0.07529444796391695,1.5906659710323021,-1.3385662590231302,-0.015802005892602868,0.04638081206430833,0.0023218634939244326,-0.04490894732621931
1739656751176510,50.773675642865726,9.289646364131261,0.7166226698726986,7.0169881208434415,1.437126052008035,-0.01696025620030507,1.6015936352668816,-1.3387691310938543,-0.028921589580665645,0.02321584553795584,0.008507974488781938,-0.01923899940920668
1739656751276501,51.471632401658496,9.436781326705876,0.7154414929081014,6.951307131142179,1.4993327027230368,-0.040969465172995545,1.6026600462464549,-1.339340341488064,-0.02992918467191777,0.0002774371986643533,0.0005058691794892748,0.009390971303947301
1739656751376500,52.16295826971809,9.590884524835245,0.7073402064388871,6.873400736197904,1.5652027579836965,-0.08302056921892607,1.5898898179561267,-1.3387946515521123,-0.012150207537225828,-0.07505322605407337,-0.021049610479457775,0.05387345019466156
1739656751476501,52.84925924586389,9.742898615496134,0.7015915531193673,6.864717325391335,1.4882494930775256,-0.0178267878643137,1.5631496276213295,-1.3366895686758469,0.017774613196697292,-0.009428522887676602,-0.014539910663817924,0.06997343661754922
1739656751576502,53.535729711957444,9.888629533880668,0.7031505010838356,6.892642429216307,1.4144090945117027,0.04225793033919025,1.5356542008669152,-1.3349123423362603,0.0433511082705458,0.04913109257194156,-0.005631841290996127,0.05466492308715179
1739656751676502,54.22774303051163,10.029726261853002,0.705523549927783,6.932557926218637,1.4303839052547451,-0.00615386450653236,1.5219814075243763,-1.334005193681017,0.0518298186409884,0.027030838190540685,-0.0035046445040415033,0.01856761852101537
1739656751776503,54.922181432988644,10.179021110688725,0.7044795969383867,6.955565452485621,1.5448511579403792,-0.0030038007903682553,1.5221964592025987,-1.3348054615890932,0.05158801846235883,-0.026139050841529336,0.012212566742065143,-0.024399623770203143
1739656751876504,55.62090144922345,10.334276269139133,0.7045830363512744,7.012676214813124,1.5482164851415618,0.014486905091131456,1.5417703107362597,-1.3359075395174846,0.03484431529632698,-0.007662667166169582,0.006708723907021208,-0.06127123718125756
1739656751976505,56.3256880089806,10.485652989062089,0.705692671479639,7.058311140069132,1.4604960208950657,-0.00016041573905961615,1.5763563072627238,-1.335723608496139,-5.585087944973259e-05,0.051333760229131775,-0.008883871409170269,-0.06687892385932147
1739656752076482,57.0301358459077,10.629064659186078,0.7028185939976458,7.021532674585502,1.4237812752396806,-0.04361946059724016,1.597048795278945,-1.3349201322702533,-0.025738995829099623,0.05091627966381312,-0.013740921094402702,-0.009031181477227554
1739656752176472,57.729871788064486,10.773247469343197,0.6968500258387037,6.990955030474699,1.4458947997284302,-0.08269151708016843,1.5937721017817397,-1.3345626789879104,-0.025825930502671807,0.03514692369378873,0.0021433111352070584,0.012054390469688245
1739656752276471,58.430842953976224,10.919186822701409,0.6877837241544031,7.032497381179785,1.4615696262888578,-0.10786902457893359,1.5859839456262514,-1.3343670631241271,-0.021469880816472827,0.032657016764909605,-0.004467023390469909,0.0186966440140722
1739656752376439,59.136684359794444,11.06404597695381,0.6757076256895469,7.0814879898930245,1.4325703283989413,-0.13264670889344074,1.5859260162703872,-1.333648001052169,-0.02651771405845126,0.06522183030155486,-0.010840216691113062,-0.013708396673651521
1739656752476405,59.84817642420646,11.210579164313057,0.6646373245156737,7.131176364602947,1.507347543281955,-0.08865859159559368,1.5989080055420426,-1.33247362096694,-0.043841806966425034,0.025212149339089013,-0.0020980840554755313,-0.04940681217274804
1739656752576408,60.56082416320337,11.364074090242639,0.6576320163318934,7.105174372914613,1.5630266253734018,-0.05751213711624104,1.6131432152044203,-1.3312423219306002,-0.059037456930653466,0.00961419739527601,-0.011569137397326705,-0.008808987782669952
1739656752676410,61.270014569434515,11.520837555358442,0.6510894989761488,7.076214594655034,1.5648088067568724,-0.07319633586139865,1.607366290593665,-1.330443533551259,-0.05348355920675749,-0.002378535537952918,-0.012711352960830273,0.03990212828901338
1739656752776410,61.97694362602102,11.67502799435094,0.6423444712485232,7.068823875819387,1.5512635199869567,-0.10678051945315113,1.5819546703425194,-1.3284191441823265,-0.03090548254065829,0.006673451792116473,-0.03108030454710943,0.06399331774773458
1739656752876387,62.685189185516435,11.83656617628587,0.6327259449365749,7.100114664359603,1.6628946996630076,-0.08286236858118042,1.561089772635986,-1.3250462425680811,-0.008959643123570272,-0.03431285735089838,-0.03569555955865537,0.031630557486694404
1739656752976394,63.39707830491341,12.006812523210211,0.6266628393641219,7.128124394331638,1.72650466203797,-0.03260513959488424,1.5580187482427912,-1.321610563398533,-0.001554842078007468,-0.042501209537890494,-0.033649804542474196,0.0009609035812237941
1739656753076394,64.11067369015517,12.18156115969659,0.6244065072688472,7.140656170054769,1.7624399578444896,-0.008684258157460862,1.565165967204627,-1.3180451869891645,-0.0038746953505602866,-0.04547824431546531,-0.03999956992837365,-0.02525946043420281
1739656753176396,64.82437029445911,12.357608304987696,0.6229811188234269,7.122286006057349,1.7405615813458255,-0.02417878138804369,1.5744314343806376,-1.3139366780067725,-0.00930744933946187,-0.0042106759739694,-0.042699318551886876,-0.012372398927878964
1739656753276396,65.53483527207892,12.530791916116655,0.620577121957544,7.088227085360868,1.7451190921974133,-0.0333269634846851,1.5712213605282885,-1.3110074997662258,-0.006428370676862382,-0.010852123247866757,-0.022514910938997594,0.019096440637398595
1739656753376397,66.24257996067735,12.706921872412622,0.6170545879911361,7.074339103293708,1.783285105505659,-0.0335564089373738,1.5644512309535297,-1.3080995255830832,0.0018144510280777655,-0.02591541251291165,-0.028924682971270547,0.01774542150731239
1739656753476398,66.94943230373907,12.886290631031791,0.6129488839518391,7.06587040922803,1.7904659800771583,-0.04730434681239804,1.561495224820188,-1.305567022258693,0.007089401647510619,-0.006211266016902728,-0.020368730359694727,-0.005922763143764979
1739656753576398,67.65792209550504,13.062735099605042,0.6091157200466282,7.0987546010277045,1.7471319050226326,-0.036733468131500004,1.567308335455794,-1.3038800442395129,0.00036521341170978505,0.021076836656320493,-0.01799354347928682,-0.032741495356876905
1739656753676400,68.36718955356329,13.235631969755906,0.605218680215103,7.080270334368158,1.748770375072524,-0.0397683321595445,1.5808992246657743,-1.302328055026485,-0.015429034650600016,0.00467226286883977,-0.01526394403204455,-0.0344257917655308
1739656753776400,69.0730156389451,13.412293880865002,0.6000531013568254,7.037410679321235,1.7698284251587562,-0.06846154257263411,1.5960040757009382,-1.3016821891727663,-0.029176588050383943,-0.010248921950248641,0.0009210655751952343,-0.03805911537241384
1739656753876439,69.77537986937101,13.589175600753432,0.591962385304086,7.009522687202209,1.7735314637353916,-0.10755453946165973,1.6092397750835956,-1.3017902948018576,-0.0412617829620021,-0.023025793760356045,-0.0006240769024978813,-0.042326511119696104
1739656753976437,70.47382913106452,13.765686281107508,0.5795587450248362,6.971002042006195,1.7485292021786794,-0.13080776254056403,1.6214699599854283,-1.3012402072794504,-0.05161998755131423,-0.009366405396818697,-0.0048719602720426304,-0.04065304249985228
1739656754076436,71.16736787061758,13.937973016893197,0.5678589790489414,6.895198660853605,1.6950986276880464,-0.1129596167843226,1.6310394792686604,-1.3007758367785778,-0.0616505824159034,0.02321714340779629,0.007903728716713625,-0.012886340664229109
1739656754176437,71.85505849787451,14.107853466263316,0.5557431522403772,6.848853353523012,1.7011506256397908,-0.1318552449537631,1.6353737741592038,-1.30128152488263,-0.06712259778054995,0.004355731940489042,0.006051366497419467,-0.013356845946877981
1739656754276461,72.53659747982242,14.276601849482017,0.5413964080292322,6.769492018764979,1.6941096626633145,-0.15311071242115068,1.6348611904312715,-1.3018586062855948,-0.0673525232606796,0.006615745136844189,0.006864969678130168,0.001331942286341196
1739656754376471,73.21119365140478,14.44736372896349,0.5269452630793421,6.727133475801597,1.712889933793215,-0.13680373562865833,1.6309637575219804,-1.3025903386222875,-0.0615298033203933,-0.04407155646853241,0.00780960025867346,0.0040815788333059926
1739656754476517,73.88422014734452,14.616867716278364,0.5137711802171139,6.728583254192507,1.6641993697827955,-0.13591646671559082,1.637566587209401,-1.3034340268308804,-0.06602522263032545,0.005317588172408861,0.013689188041726932,-0.02894305923654108
1739656754576515,74.55516391194398,14.7795645842919,0.4984127838774694,6.696729756011226,1.5954029610263523,-0.16555527826056313,1.6472961410569131,-1.3049534124481805,-0.07645905679261543,0.022747191351242285,0.02617410249176078,-0.033701600880130446
1739656754676516,75.22438728489207,14.93595514111741,0.48169543697296574,6.704173114352711,1.4978543783884029,-0.1812827601888664,1.6623851777933307,-1.3073785732147893,-0.09351556268526535,0.07273459333060567,0.03741785847845515,-0.04615955370083829
1739656754776554,75.88414844403005,15.094088088691702,0.46662073978944374,6.50666059302888,1.6584793348214584,-0.13854214575347265,1.6701968514431742,-1.3113392393899712,-0.09847975174627072,-0.10781036070437075,0.04074516352582242,0.01238724610045256
1739656754876576,76.5293801862742,15.260750792523886,0.4541919833924434,6.433108630571475,1.6276651717098511,-0.13603000653869857,1.6531739652631374,-1.316246266835312,-0.06978820716216223,-0.09196971168772819,0.052920018176956525,0.040662772352125044
1739656754976616,77.17274388975984,15.41575734966513,0.4408242780972852,6.446304809658312,1.4685962148960574,-0.15590020455251266,1.6338167516530757,-1.3215567203676395,-0.045957926954957935,-0.029790618775980212,0.05561018594003689,0.03186978750237998
1739656755076658,77.81725369799837,15.544132394512154,0.4256505567803178,6.420927214030602,1.1323796309215988,-0.15311070218831846,1.6151094650230817,-1.3272965510007726,-0.03695118963615867,0.1304789471837204,0.07745407506539216,0.04532471144814775
1739656755176698,78.46015714019943,15.66596743377469,0.41679760169535196,6.421334958267232,1.3275023076653147,-0.060640996242193615,1.6090932858669964,-1.335601223672386,-0.03846238900868449,-0.02791145859135756,0.09404083327971612,-0.01305758408415181
1739656755276748,79.10193962290107,15.805350668493455,0.41033183641863147,6.421652253879653,1.4219970387644048,-0.09225711442362822,1.6314507937369185,-1.3448470533336312,-0.05056134505069669,-0.11855133272065968,0.09827673593365326,-0.07127364533950614
1739656755376743,79.74149422110035,15.942433323806588,0.3990824511259171,6.364421887579422,1.2753079828994118,-0.13560202797929943,1.6604858544587064,-1.3542500257372874,-0.0699024257979129,-0.04941397294656083,0.09729624210601816,-0.032455445177742924
1739656755476741,80.3775305598954,16.055402857158445,0.38621825996322967,6.360734510941862,1.0132011359063948,-0.12482936958256532,1.6733867387858032,-1.363326019805489,-0.08458837107232689,0.05698275872080331,0.09335058422025093,-0.010731621519982047
1739656755576742,81.01174563128666,16.15035938455974,0.37373567759392634,6.320798062051138,0.9375732269007402,-0.12022095597623338,1.682693282354609,-1.372992904855785,-0.09977054993720111,0.021872527280200973,0.10569321924309184,-0.009112476412706311
1739656755676770,81.6420127006677,16.248370893671087,0.3586758660729734,6.28084731973947,1.0329554047700051,-0.19823501995882337,1.691649198246537,-1.3838439474149455,-0.10513924439125608,-0.09619155370240044,0.11511799985102825,0.0017653339815160882
1739656755776833,82.26689129666235,16.343218993298777,0.3417928596884092,6.172284007574566,0.8652532153246799,-0.10819832776648512,1.692523025911121,-1.3955560796498672,-0.10312197367843616,-0.00176298566508075,0.12422340894235558,0.04939602380535123
1739656755876842,82.87911814599275,16.424645237078,0.33559922339841075,6.104355124580826,0.7846702772452616,-0.04083644785583395,1.6440685342147319,-1.4069871529741445,-0.05446478830931419,-0.030559302723555063,0.10897543715986573,0.11052974429088613
1739656755976894,83.49219466767657,16.497827875006912,0.331823764446826,6.158574739495988,0.6965808693644464,-0.05681125477997333,1.5988026272776212,-1.4185993600303088,-0.007958996963041209,-0.011720954331320184,0.11906450881690962,0.03681860290856518
1739656756076975,84.10843809364032,16.561909668239387,0.32421291796206453,6.151382846548145,0.6221082184340925,-0.12457704062426442,1.5730802375552033,-1.4318766406191945,0.017235978706745717,-0.01679472600278715,0.1479076593203035,0.02449163312392357
1739656756177056,84.72418421995908,16.620346202306173,0.31324715129311764,6.189795412692178,0.5642167489872315,-0.06530170437921999,1.5587154017120346,-1.445619127042419,0.0333284593314197,-0.06939912068101253,0.133340459661188,-0.04042972654504582
1739656756277122,85.34957659746141,16.67963845322295,0.31189955506819866,6.272566023681593,0.5951864515718454,-0.007185176689600274,1.654198785059994,-1.4585458008155692,-0.0523498586252426,-0.1292169938022905,0.13141546814630517,-0.15394983209886218
1739656756377185,85.97408648920006,16.727708539267624,0.31101386883024656,6.194531439015628,0.3476942379038129,-0.04360252940566377,1.7849558353839214,-1.4725048488113996,-0.1761470174829551,0.010248993479184416,0.17413257470197394,-0.08547666498392847
1739656756477180,86.58887362684955,16.74919285725085,0.30377570330674875,6.109476445001744,0.12136986249086618,-0.11904181569747539,1.875674388801316,-1.4893704345373087,-0.2717871988819927,0.060294130662480384,0.19519185745958967,-0.007492467049049402
1739656756577178,87.19679384417638,16.758363317203266,0.28774842485123137,6.067740060914651,0.06211063953069551,-0.18525089966206634,1.9551880314803318,-1.5080132449797212,-0.35396338131880445,-0.0019381259820722778,0.20012140033501732,0.0025771214740641
1739656756677179,87.80217815511986,16.763892470741727,0.268818482176019,6.039189460217691,0.05094979167290202,-0.19756842777033864,2.102914362215715,-1.5269239885685912,-0.4964668888246728,-0.08338771362865219,0.2069294673431972,0.008869192708558895
1739656756777179,88.40675820265098,16.763178456169044,0.251757521420787,6.0602245743197365,-0.09896165988833155,-0.14667844046474482,2.4803396685099397,-1.543093069087081,-0.865123405185061,-0.05825269249639442,0.202500875042258,-0.023460575078011286
1739656756877216,89.01204759271651,16.74025424920514,0.24023866474040245,6.0261589916497345,-0.37178598787279626,-0.10124722654006263,-3.0507388290585977,-1.546994852984787,-1.6156395255678955,0.03747638562848439,0.1883478022155903,-0.02394092742770352
1739656756977229,89.61100760652577,16.687554218675658,0.2308890992135262,5.936349153983254,-0.6515393749895603,-0.09396623453828593,-2.3982284833532432,-1.5398004299720147,-2.279695787187732,0.16705073832013514,0.18596776873822868,0.022688855964480822
1739656757077232,90.1987540763086,16.621581758062774,0.2234239888196016,5.831144460674398,-0.6626922385296492,-0.059375848300267424,-1.952642979858843,-1.5272796812477967,-2.735701265783603,0.051703039635150015,0.20398534719346104,0.08151874955956952
1739656757177234,90.78049509390677,16.555609232245196,0.2175390101614212,5.8226051482133245,-0.6721072986059359,-0.06615939746180366,-1.6830496489816316,-1.5092841464500586,-3.0060094397259363,-0.012696948668377691,0.21121691745787616,0.0753714155119806
1739656757277234,91.36516439531957,16.487981653919757,0.20828620706629614,5.875211087643616,-0.7142499257808879,-0.10923984129064399,-1.5896663658329102,-1.4889805659041813,-3.095410895633196,-0.027841167398124898,0.19801657384242738,0.022039951961491736
1739656757377235,91.95484574783747,16.40822858181694,0.1974049060641186,5.906231636511067,-0.8890680883450329,-0.11020905824389543,-1.6035697787760037,-1.4700605090730685,-3.0795573780143415,0.007057078728660316,0.17528726661907634,-0.05678195332766852
1739656757477236,92.54523455916178,16.30917935268084,0.1886274304654536,5.900471402414957,-1.0814828968028223,-0.05251087204136357,-1.6550690100319312,-1.4524226808289364,-3.0313561346578783,0.0567859287071285,0.1679117989126167,-0.09153619782388563
1739656757577237,93.13218106741789,16.194559087263414,0.18504258122054734,5.831587738988216,-1.1969645434839686,-0.026328754581689144,-1.706256326211442,-1.4348213918227055,-2.986187699362475,0.05353500016170916,0.16352130997338787,-0.07585693416085577
1739656757677238,93.70995373475145,16.07323937057534,0.18171030435635216,5.720322230476171,-1.2291575168922662,-0.044726076026521504,-1.714077096399351,-1.4168322716499784,-2.9817925037348303,0.02291498062339354,0.18358199973906367,0.00015157954381702114
1739656757777239,94.27701100401612,15.950475921001512,0.17502374829828218,5.630833810542811,-1.2165646126031158,-0.09895934684900827,-1.6775973872644159,-1.3978511529917477,-3.016160678266587,-0.04892499626091772,0.20454726836729994,0.062291503149545936
1739656757877239,94.83701600134069,15.826243972486115,0.16286175600290914,5.583265970175133,-1.2950338458629034,-0.13178883930915863,-1.6249650968132827,-1.3775360205681222,-3.0604048671406643,-0.0721257400400992,0.21637802185296823,0.0696002109498736
1739656757977210,95.39620268929285,15.691940836755245,0.1497933922435626,5.591452125061432,-1.4136876210477092,-0.11680758701730398,-1.595213445152284,-1.3563198514592365,-3.0804503683515954,-0.08815532715541059,0.21346744294008643,0.025263673935238366
