GPSTime,easting,northing,altitude,vel_east,vel_north,vel_up,roll,pitch,heading,angvel_z,angvel_y,angvel_x
1734989257886804,-5.20750868123974,-0.886456124268455,-0.190449079837722,0.0008493820715342706,-0.0007556622873848287,0.0019962693526669076,1.3917259231805914,-1.3942400580532426,0.15023708152929494,0.003811260173438527,0.001113157896024047,0.0013140698297283027
1734989257986805,-5.207526548873263,-0.886429871962627,-0.19042087448750708,0.00014362299306152514,-0.0009076599153654916,-0.0013333356207384857,1.3917011538636457,-1.3942370084717626,0.15028369202068287,-0.0024843010158647357,0.0012900657026731319,-0.000294240587153475
1734989258086806,-5.207531420885062,-0.8864416107135595,-0.1904047349582712,-0.000622502248937881,0.0018304379793042153,0.0021956577121314733,1.3917608706859341,-1.3942329105103197,0.15019104104201322,-0.0029998423023304736,-0.003071350170738584,0.0025380944310654896
1734989258186808,-5.207513941512516,-0.8864327874531268,-0.19038852056693856,0.0006241164281232144,-0.001061005602927232,-0.0004989781758506107,1.391775636502588,-1.3942173655353909,0.15019260934358858,0.002576973854845802,-0.0005282198042975429,-0.001179640136065534
1734989258286809,-5.207503163928206,-0.8864134813307295,-0.19035805881132406,-0.0012278496622972084,0.003246059687481387,0.0001996493079419691,1.3917893902971752,-1.3942119927285128,0.15016927792480347,-0.0022830162044959095,-0.003890818540012856,0.000435215641928819
1734989258386810,-5.207460146256244,-0.8863783815146322,-0.190358961315746,0.0008803658214016525,0.0005343618592968778,2.8316987039474823e-05,1.3917905049539006,-1.3942169101000352,0.15017830294032075,0.004368911754122896,-0.0037094023676261323,-0.0011304092157737374
1734989258486811,-5.207395378071569,-0.8863529965616441,-0.19032466940481052,0.000846705810532909,9.129956613322363e-06,-0.0008121663401706628,1.3918019978120129,-1.3942077699899869,0.15016130850358198,-0.001597982136495377,0.003715850094030913,-0.0009457106264698243
1734989258586812,-5.207338600404749,-0.8863231440591275,-0.19031780911414858,0.0014580323817810728,-0.0003947238079012809,-0.002027310892925933,1.3918201153441154,-1.3941991798232876,0.1501335460467114,-0.0010499809243737733,-0.0012624754041138605,-0.00444065141264007
1734989258686812,-5.2072774326878415,-0.8862766090478128,-0.19029413451851454,0.00014552689652167557,0.000321777789201132,-0.00022029665190443045,1.3918889981322027,-1.3942015051675438,0.15007213803806038,-0.0004016594197273869,0.003210884663792855,-0.00010886242773276897
1734989258786813,-5.207219736405966,-0.8862670353777257,-0.19028251820707787,0.0014445392591901705,-0.002266549310708562,-3.236786701059742e-05,1.3918422124684535,-1.394192531579391,0.1501289514856262,0.0010591532106499519,0.0016893842244683638,-0.0007650689349334659
1734989258886814,-5.207181231201085,-0.886228529500054,-0.1902326648517415,0.00020922421493756204,0.00040351028339434287,0.0016488844615962978,1.3918236135474982,-1.3942101922016146,0.15012197514958123,0.00024596637530379935,0.002402037567250018,0.0024342329201121225
1734989258986815,-5.207139634817602,-0.8862107129641926,-0.19021503999466044,0.001706595008229048,-0.0019775141417289538,-0.00040701314038108606,1.3916991887773609,-1.39421246625713,0.150270433610556,0.0014855047885989048,0.001495499081696611,-0.0005002910008648705
1734989259086816,-5.207095228630891,-0.8861589153609342,-0.19018518681508728,-0.0007097712953440998,0.004484813497683365,0.0010387745093600478,1.3918111889622409,-1.3942366343100459,0.1501252035323016,-0.005448953967709124,-0.004683105682569549,0.0016476080096702616
1734989259186817,-5.2070501369143996,-0.8860738977582089,-0.19015632207160577,0.0010732837238026606,-0.00189354205315515,-0.0012476823253081619,1.3918121314917173,-1.3942228811531283,0.15012740367186667,-0.0026921449665716565,0.0010319245724377559,-0.002101689321454416
1734989259286818,-5.207014013778337,-0.8859989506301275,-0.19012543302664808,-0.0007384769656211479,0.0034422025541241017,0.0017849303308132781,1.3918678394800004,-1.394203321706759,0.15005837532274857,-0.0009488559608492842,-0.0020192133169337095,0.0022374153531128887
1734989259386819,-5.206979646139198,-0.8859243058447057,-0.19009565249044674,0.0016756717780908466,-0.002155791394871043,-0.0007210106766943569,1.3918023656454561,-1.394210526840111,0.15014011054224477,-0.0008333979721221764,0.0015376807806660698,-0.0008964231409229311
1734989259486820,-5.206912228345798,-0.8858935574144258,-0.19008343131804148,0.0007649796120081857,0.00024543331663083394,0.00032539076439369786,1.3918264540278997,-1.3942142257677075,0.15009932199092646,0.0023053670729354346,0.004570092407937153,-0.00044096347649868843
1734989259586821,-5.206862589617273,-0.8858570148942149,-0.19008623003611577,0.0017972335452242905,-0.0023860521600146977,-0.0024802977663674875,1.391795850904704,-1.3942274702826047,0.1501412321398914,0.005375315493477943,0.004285671721201913,-0.004069798709787436
1734989259686821,-5.206804219740059,-0.8858531283286621,-0.19008957389037073,0.00012449670696936248,0.0007987227759009158,0.0008147345323612473,1.3917970600429515,-1.394235389566379,0.1501146278057322,0.0019216029886294712,0.0015351425215630297,-0.00019746695651865636
1734989259786822,-5.206770603511377,-0.8858265419669772,-0.19010377393649455,-0.00011430679055418303,0.0012757883150034297,0.00013538734164204733,1.3917151707342448,-1.3942350016122613,0.15022982171418028,0.0012946166341472425,-0.0035699377744114855,0.001587878799859263
1734989259886823,-5.206707560548926,-0.8858475071885288,-0.1901330763706805,0.001388937645306323,-0.000431914874949231,0.001050886855408858,1.391826743826243,-1.3942318799756444,0.1500858707366912,0.002672703648901271,0.0011391084830716072,0.0008059142131410423
1734989259986824,-5.206672665663873,-0.8858547187816568,-0.1901509471526121,0.00035323687201828906,-0.0007027710468050209,0.00013557446179393386,1.3917990371420301,-1.3942267911358917,0.1501390316012132,-0.0009288155885806292,0.0009598484901311798,0.0020784081002738104
1734989260086826,-5.2066122627386715,-0.8858988783122175,-0.19015896743459854,0.001480867685550359,-0.0001918232900708558,-0.0005677044857348054,1.391816779562667,-1.3942359569200065,0.1501039449451415,0.006275256419931381,-0.00011563821430864366,-0.0026327658906319237
1734989260186827,-5.206539652982217,-0.8858891937253499,-0.1901283011423755,-7.560165014549603e-05,0.001364963738403922,0.00013797280158362837,1.3918332257162995,-1.394231761206941,0.15007533539779985,0.00019770704640698555,0.00021747159032870257,-0.00011520017566516242
1734989260286828,-5.206482929957863,-0.8858906469372655,-0.19011653435399695,0.00148404301981507,-0.0015101928196242017,3.356230831717993e-05,1.3917618752713805,-1.3942188822524093,0.15017771905184327,0.006729680686624224,0.0014623666035524239,-0.00028777947859630305
1734989260386829,-5.206393648488401,-0.8858777557483632,-0.19010521765415223,8.515234398965196e-05,0.001613953463253726,0.0005647763664796588,1.391794770317982,-1.3942253103400963,0.15011165784471997,-0.0013116224832040752,-6.330699443313268e-05,-0.0004276587840246801
1734989260486830,-5.206332739025013,-0.8858460312765924,-0.19009995324789491,0.0008542885357686307,-0.001748740630982244,-0.000828314759441893,1.3917456845210094,-1.3942274583439365,0.15020452529230335,0.0015825272554125097,0.001724088171138203,-0.0005234633852209004
1734989260586831,-5.206296717856703,-0.885838586394075,-0.19009260436859782,0.0014319318774698314,-0.0008178407581287414,0.000978874873386,1.3917476809268858,-1.3942230238327444,0.15017814775956037,0.0017206291997689585,0.004320406799340237,0.0004043973776399235
1734989260686831,-5.206275663158998,-0.8858070348456886,-0.1900823129199265,-6.514428200679962e-05,0.00031587043195873283,0.0006547810255546576,1.3916697198679562,-1.3942472998423319,0.15025851748887134,0.003985096991485436,0.0013616691484485991,0.0019325258773729235
1734989260786832,-5.206272754899512,-0.8858058828199824,-0.19011474714612658,0.0006828973183781647,-0.0006587855147689236,-0.0006850022467387925,1.3916598964511293,-1.3942425781060348,0.15028873990675795,0.0010796341920542214,-0.0004029597295181754,-0.0011085712448304906
1734989260886833,-5.206275759141909,-0.885779584157981,-0.19012907458907125,-0.0006928518594463637,0.0010887943738112952,0.0012258940209139097,1.3917035835113258,-1.3942441068273546,0.1502015035518004,0.0023591708120876843,0.0017912280788944658,0.001558318821382696
1734989260986834,-5.206316989000151,-0.8857666456059299,-0.19015722268791174,0.001041337161179691,-0.004065157852909158,-0.0006203631760424993,1.3916965832540766,-1.3942503892763238,0.1502399321370482,-0.0004605901575211819,0.005140032013189495,0.0008344743628680228
1734989261086835,-5.206297318054337,-0.885860184815047,-0.19025555904413927,0.0006413034523419599,-0.0003632506319974124,-0.0007700851876554037,1.3917802114611697,-1.3942462089027465,0.15013219904595568,0.0013656147973879634,0.00036383695632883576,-0.0012224054404929743
1734989261186836,-5.206279509288533,-0.8859562759520712,-0.19034747712647893,0.00030730360637238496,-0.0025038400955242394,-0.0017509891097692762,1.3917952801965043,-1.3942529030257231,0.1501380194374262,-0.0018503422094790529,0.00206639502983234,0.0002656382250003902
1734989261286836,-5.206288757213116,-0.8860753655552845,-0.19047259041854153,0.0008039928833017792,-0.0020780958366099734,-0.0012581975400792235,1.3918981241760267,-1.3942564567947913,0.15005261989721094,0.0027638955369758806,0.0008356346045230714,-0.0008336917244024137
1734989261386838,-5.206303296715715,-0.886160702387939,-0.19054896604869248,8.560498493578476e-05,-0.0028810238809113655,-0.0008373846442532725,1.3917286329513876,-1.39426227240937,0.15019456338924286,-0.006305101369356133,0.005744998111852136,0.001111318782684681
1734989261486839,-5.2063007022402745,-0.8862728548019871,-0.19064964518070937,0.00020780437905958932,-0.0023213647204279337,-0.002384722683633797,1.391701114174868,-1.3942644808479456,0.15024588540833883,-0.000459198984911278,-0.002152331924031577,-0.0015586218537316783
1734989261586839,-5.206285424955868,-0.8863710672769605,-0.19074700025293762,-0.00011580583331873671,0.0014954557537635385,0.00015704747429372322,1.3917306636424422,-1.3942682757818574,0.15017720036744028,-0.003107402523706525,-0.002956918290505991,0.001432750160815569
1734989261686840,-5.206284692865215,-0.8864551246651724,-0.19083377585748063,-0.0002150887127011515,-0.0013823827306777266,-0.00254570831586581,1.3916086371276934,-1.3942699006038926,0.15029694954938247,0.0007335647550287819,-0.00036730880127767903,-0.0017499040384260467
1734989261786841,-5.206264978830203,-0.8865830011226201,-0.19095761637474393,0.0020886675523285676,-0.0038828404830581584,0.0006103624412391636,1.3916023425297095,-1.3942745054676435,0.15031689238258497,0.005548365026230763,0.005628129874524344,0.003118884283483
1734989261936843,-5.206272608012146,-0.8867404179786342,-0.19110775248028267,0.0003030672507519839,-0.0038878602359418753,-0.002712698983143723,1.3915723233897046,-1.394271890043186,0.15032981222171066,-0.0030427914074705187,0.0037672360506434623,-0.0013644869878930868
1734989261986843,-5.20627773693667,-0.8868291235610319,-0.19117130722933984,-0.0003427780080903757,-0.00088262243753744,-0.0004215091297800326,1.3916132204933969,-1.3942794627074893,0.15031150771755766,0.004885982905279603,-0.004900376258944723,0.0015355908059967497
1734989262086844,-5.206245288584937,-0.8869870499723781,-0.19129157094643084,-0.0003407059315029163,0.00030679941647006196,-0.0016683448594031931,1.3916615443051434,-1.3942742525388647,0.1502277663607048,-0.006532183346139173,-0.0025638459247139373,-0.001349332757212083
1734989262186844,-5.2062219968956,-0.8871268587721651,-0.19140029507292936,0.0006140055017335758,-0.004027161757204696,-0.002931944530282504,1.3916491406134648,-1.3942469655734082,0.15024318666654765,-0.002807445385796701,0.0030292384607732373,-0.001835549056094235
1734989262286846,-5.206184997800037,-0.8872948588183958,-0.19152796884223555,0.0007483555694916064,-0.00028108151754253506,0.0004905451061079574,1.391647637589785,-1.3942588272320606,0.1502387846263481,0.0019445220993459728,-0.003334350710169367,0.00220076524963923
1734989262386847,-5.2061496760294474,-0.8874206267912579,-0.19162206882736904,-1.5136728043365202e-05,-0.0014687981036791383,-0.0008108918051548145,1.3916882668686323,-1.3942374972878697,0.15020451862006087,-0.0020655308017919504,0.00253800786552014,0.0005520519586485605
1734989262486848,-5.206122258948304,-0.8875812297869381,-0.19171679429507382,-0.00029652124640046324,-0.00111600885164361,-0.0018523564460969596,1.391603381060537,-1.3942494966239007,0.1503067093941846,0.004287471198092975,-0.004531150443118522,-0.0013405876071067519
1734989262586849,-5.206090481558985,-0.8877261140069899,-0.19181459358105102,0.0010049480594941371,-0.002700059220296935,-0.0013056690230840611,1.3916482112200856,-1.3942352169650332,0.15023344775509778,-0.0034771968855085004,0.004245214251184355,-0.001476381395665704
1734989262686849,-5.206079333859714,-0.8878470874254302,-0.19190531430508564,-5.162833727129128e-05,-0.002410669116996128,-0.002054148986547672,1.3916542924058923,-1.3942199212220676,0.1502371346820268,-0.005196890456547326,0.0007869517279416673,4.91905790277614e-05
1734989262786850,-5.206077385929724,-0.8880090802567975,-0.1920308482998016,0.0008844938772419296,-0.0005996590801915641,-0.0008691041292622818,1.391612131867757,-1.3942069158460884,0.1502955578501578,0.0057057576337772205,-0.002913043802780743,-8.820346159746011e-05
1734989262886851,-5.206064622765302,-0.8881496789049426,-0.19213058490403384,-0.0006237379008070336,6.667887079085984e-05,0.0007930974168477826,1.3917159817228266,-1.3942086748124556,0.1501678544165691,-0.004628005670189943,-0.0012100603371477828,0.0030737049140478036
1734989263036854,-5.206079820423556,-0.8883943063575588,-0.19229316043490244,0.0022592202976266804,-0.004267496123707779,-0.0017190236504268657,1.39161831943915,-1.394206394148497,0.1503098710799355,-0.0038255195793299676,0.003547905551777617,0.0004174038384692655
1734989263086854,-5.206064821598247,-0.8884407683601929,-0.1923573036029525,0.0015662259880379872,-0.0034791339649104594,-0.001532536396027067,1.391720986378656,-1.394207092170988,0.1501885994302202,0.002035589183772523,0.005423922976211194,-0.0020651551550176245
1734989263186854,-5.206055375092194,-0.8885039890951009,-0.19246260956480687,-0.00021567980190260143,-0.00033908192019953585,-0.0011186893560883788,1.3917625067684005,-1.3941821912033108,0.15013902101258617,0.0021585726683013167,0.0022677961927302336,0.0003216650431223351
1734989263286856,-5.206046969229585,-0.8885947759098931,-0.1926032070868633,0.0015561871694901373,-0.0038361496824624542,-0.0030588854690941506,1.3917275213779892,-1.3941798166823343,0.15019927831287466,-0.00021087725418402948,0.003389422866382961,-0.002290822994785349
1734989263386857,-5.206014836341778,-0.8887245748145958,-0.19272606375074652,0.0006794936578564044,-0.001890833035479178,-0.000823096645916465,1.3917831926323379,-1.3941954221879147,0.15009400703506784,-0.0015320202548202337,0.003384680076996824,-0.0003227220228926858
1734989263486858,-5.206033065438434,-0.888811483447464,-0.1928672725658058,-0.0012402980908662407,0.0008153834877917446,0.00033467756300098857,1.3917750325682428,-1.394169798499634,0.1501305921050205,-0.00027537348994804305,-0.0046315061907915385,0.004438209210786687
1734989263586858,-5.206045860953204,-0.8889254874066301,-0.1930207131134249,0.000974631900392554,-0.0025838529711267135,-0.0011115966731272994,1.3917503002626317,-1.394162034139669,0.1501589500849829,0.002977877847036894,0.001607337441974889,-0.00038410733553615833
1734989263686859,-5.20603685314133,-0.8890174531543126,-0.1931443515319913,-0.0005252190882993336,0.0005042107758814824,-0.00209953106389408,1.3917778520072204,-1.3941544084668878,0.15011145440494733,-0.0035497401792470356,-0.00043940185029923273,-0.0010248403154972372
1734989263786860,-5.206059581056504,-0.8891079568413369,-0.1932915861224137,0.0005711947403483524,-0.0036114853966040805,-0.003654188767209972,1.3916841653617007,-1.3941498740142113,0.15022444832064447,-0.007155582759330306,0.002588851853211043,-0.0020408576564070087
1734989263886861,-5.206060043312589,-0.889227737226305,-0.19342836593833912,0.00019358453748260818,0.0006182260885730403,-0.0011644532669235898,1.391755867109525,-1.3941540978936051,0.15013653037362326,0.0014420095499131143,-0.002702215643156667,-0.0017488601918531686
1734989263986862,-5.206079385676659,-0.8893105495320859,-0.19353541549968029,-0.00123605242807418,-0.00012778412306164763,-0.001110372148392915,1.3917085390797979,-1.3941463389319717,0.1501923033930573,0.00040948911847822275,-0.0003728716987159679,0.00028911969702673067
1734989264086862,-5.20610800888705,-0.8893356216026486,-0.1935860867327655,-0.00011147905669570296,0.000232498370600771,-0.0004960349870236822,1.3918574203215708,-1.3941580644592109,0.15005584200646901,0.0035548955441747697,-0.002744143943806551,-0.0010958107690368839
1734989264186864,-5.206123875074458,-0.8893366435674253,-0.19358878764673249,-0.000210396059706902,0.0005273589165352772,-0.0001318846994899288,1.391814323937078,-1.3941620479268075,0.15007217472721984,-0.0067615433052839865,0.00060528541448511,-0.0005866998455362978
1734989264286865,-5.206159077725828,-0.8892789931619821,-0.19359545081599272,-0.0001482051308001924,4.002569564407636e-05,0.0004859755484476261,1.3917602949780024,-1.3941273331266222,0.15013368048477818,-0.0047883563813752375,0.00041406790675622973,0.0027077317195301196
1734989264386866,-5.206162312564304,-0.8893020722846348,-0.19360535252918015,0.0006293283262195853,-2.3960838862047474e-05,-6.879630764770244e-05,1.3917227942817254,-1.3941572631376529,0.1501779374236771,0.005555456250505648,-0.0008133868034397716,-0.0011057391038912091
1734989264486866,-5.206184774179967,-0.889277650049541,-0.19359714866599814,-0.0005509943942636517,0.0005470473014707189,0.00023467090191815645,1.3916927275410251,-1.394138602202444,0.15019800108546708,-0.0009575020243858218,0.0026848820138798764,-0.0004239035017349087
1734989264586867,-5.206212610304119,-0.8892617813006529,-0.1936031024814909,-0.001025803643309149,-0.00032025619791465904,-0.0012752384864791405,1.3916812514042136,-1.39414669621285,0.15024469769977974,-0.0020179474148501295,-0.0018295389297676911,-0.0017913159231579877
1734989264686868,-5.2062463981779015,-0.8892733885414187,-0.19359255810311704,-0.0010848839687150405,0.002495245353236222,-0.00039022562318061384,1.3917743985966207,-1.3941376767733855,0.15014094340384518,0.0021091575800282294,-0.005746796744372921,-0.0027495847206997857
1734989264786869,-5.206321539462445,-0.8892520174452978,-0.19356399267580882,-0.0007817375603379035,0.00016556831087903996,0.000879537160372839,1.3917868850370023,-1.394121755008423,0.15013417298023746,-0.003175830499322162,0.003016937353211792,0.0019448732441880512
1734989264886870,-5.206380440319774,-0.889246800030841,-0.19353813893625108,0.00018099796746537598,-0.0002536491503933979,-0.0003469185427417005,1.3917174339743137,-1.394111484093422,0.15021142315004132,0.0020501883874211144,-0.0014970973517148013,-0.0005730804195507276
1734989264986871,-5.2064502834904545,-0.8892261901690288,-0.19352366290414696,-0.0014688204142940511,0.002474186718425266,0.0006904745903082362,1.3917400844470365,-1.3940927219894061,0.15017003623554748,0.002405794337819566,-0.001285764402868416,-0.0010823394317432328
1734989265086872,-5.20652226172827,-0.889185958913391,-0.19348450938148287,-0.0007398690612143266,-0.0005685355990833982,0.0007807383977440051,1.3917070774606706,-1.3941048401005354,0.15021493073454065,-0.0035108055093121143,0.0012051027850042664,0.001957875811242131
1734989265186874,-5.2065744898930735,-0.8892148019219294,-0.19346491636040106,-0.0004695166989672276,0.0009633544758535952,0.0010338727972243956,1.3917944038604628,-1.394108407625423,0.15014913553772827,0.006830587818992991,-0.00450221952728273,0.000620079161828693
1734989265286875,-5.206631685945238,-0.8892217641224563,-0.19342209896403714,-0.0015299209185875877,0.0034733671599374155,0.001101905138957009,1.3917739466707995,-1.394111424947241,0.15014244637641305,-0.002040278075948962,-0.004317857684681328,0.00017697650476994982
1734989265386876,-5.206703313085163,-0.8891985583603096,-0.19336358142814053,-0.0006273285181826345,-0.0005994465092944964,-0.0010315565462119302,1.3916415564279023,-1.3940993707293055,0.1502925752485054,-0.007883094004364065,-0.0005820556891891969,-0.0006218582677555919
1734989265486876,-5.206763660250823,-0.8892240635808711,-0.19332592431306875,-0.0002685889254132068,0.0006855426398621423,0.0015688434928298274,1.3916696000447104,-1.3941097026148843,0.1502586479693537,0.0035374351672126433,-0.0025805346198679332,0.0012408760449516794
1734989265586877,-5.206839242760276,-0.889223219359081,-0.19327043335521893,-0.0016248652449573357,0.001119702801856933,0.00019850014703920874,1.39167695599435,-1.3941185483228904,0.15024782481641777,-0.00413985631611223,0.00042889795224622753,-0.0011601246454834564
1734989265686878,-5.20695125655947,-0.8892010331223588,-0.19322245051874257,-0.0006979912725091629,-0.0029431706408378894,-0.0001073337135012706,1.3916852947883402,-1.394102685011535,0.15025868478704005,-0.0008000963054817348,0.004358522006718691,2.6335310152189546e-05
1734989265786879,-5.207083541990093,-0.8891965248195425,-0.1931803773043235,-0.0009659784896438797,0.0011689748454815393,0.0012124888174705605,1.3916581910633463,-1.3940998108688312,0.15027057039859287,0.0013776490054819184,-0.002795480081875265,0.0007954045418544555
1734989265886880,-5.207221775372652,-0.8891586058043158,-0.1931454736998755,-0.0015238349901911799,0.0006978779119130012,0.0006278387798781327,1.3916964078925078,-1.3941004888690458,0.15022950609924424,-0.005817129364209297,0.0014357750631556843,0.0014835960702336854
1734989265986881,-5.207376940951429,-0.88916526197943,-0.1931272635603492,-0.0011481423052492814,-0.0008666130039796764,-0.0009776478759417702,1.3916128107921508,-1.3941068706082318,0.1503220719125609,-0.001731825962797874,-0.0008477135890895714,-0.001234508345107352
1734989266086882,-5.207514791304773,-0.889158971358101,-0.19312002543182122,-0.0008112429879517359,0.00044652967117012033,0.0008965061462898655,1.3917159725410113,-1.3941079994773926,0.1501989484577481,7.48868006668774e-05,0.001744950210084342,-0.00017592505255114926
1734989266186883,-5.207656143351709,-0.8891063431420061,-0.19310002216562389,-0.0023788481535715242,0.0014572453489342485,0.00036164821249646916,1.3917176215957274,-1.3941050546212022,0.15019693478359827,-0.0044644328807554885,-0.0028480727922775987,0.0017213868604904429
1734989266286884,-5.207807673490917,-0.8890998530304207,-0.19309884642454528,-0.0003420898785041386,-0.00045816455462352327,-5.6230659908466734e-05,1.391763066171124,-1.3941177264630875,0.1501637104941644,0.0027674221647014914,-0.000577477562246191,-0.0001655991121657853
1734989266386885,-5.207952825756248,-0.8890772927858371,-0.19307277189283306,-0.0011686745325182695,2.8751408855046576e-05,0.00038892477825850605,1.3917760788822315,-1.3941284379015886,0.15012346854211717,-0.0020411521971331966,0.0034599207171091997,-0.0005376363067845132
1734989266486885,-5.208107053895451,-0.8890296294056778,-0.19304829606998358,-0.0021518750080074004,0.000656221760770879,-0.00028197618882821925,1.391722324036638,-1.394124747438675,0.1502048617237877,-0.000979542450942627,-0.0010697609720653023,-0.000244553673725742
1734989266586886,-5.2082589479506955,-0.8890229565881592,-0.1930396114530542,-0.000364082396882001,-0.000994192790745588,0.0010210105498469596,1.3918021425862892,-1.3941413247916827,0.15011122815971562,0.0005463346419820573,0.0011004213382070885,0.0016262814794645692
1734989266686887,-5.2084301579016445,-0.8889870812444155,-0.19303818098933634,-0.0025600826040396638,0.0019860507953809105,0.0013264069895985197,1.3918314859582002,-1.3941242215477743,0.15008220464387492,0.002847756807721834,-0.0003702155912256936,0.001120034336461383
1734989266786888,-5.208620164683259,-0.8889721305709315,-0.1930458780720083,-0.003134108430696233,0.002142037676081762,-0.0011216832562224173,1.391789942214421,-1.39413095800861,0.15015796335838275,-0.0006072131034137516,-0.005824655286376039,-0.0009815176195376628
1734989266886889,-5.208795365638754,-0.888974687938328,-0.19306421763619822,-0.001067546918884913,-0.00010996837202163098,7.846502339351517e-05,1.391858180548482,-1.3941352902309538,0.15007253653031005,0.0021645872340573867,-0.0008446736085342136,-0.0006645401569698987
1734989266986890,-5.208978657996308,-0.888951067638645,-0.19307026384897352,-0.0028127760022365897,0.002353544637643468,-9.082934147896e-06,1.3919204157629175,-1.3941446045169514,0.1500059608239211,0.0003835205838002381,-0.0007720866323823917,-0.00020900778880782154
1734989267086892,-5.209239508400981,-0.8887773794710818,-0.19297842910429402,-0.002105049161702812,-0.0008418353716887797,0.0004094974047785701,1.3919669523230418,-1.3941175413782667,0.14996365509735476,-0.004609967956043037,0.0029098256120262513,2.8612083144416112e-05
1734989267186892,-5.209482060243665,-0.8886162494310532,-0.19285591758452725,-0.0020497632432461862,0.001823650531586691,0.0018227476516734888,1.391952519663738,-1.394120189041655,0.14998632938206222,0.0042602180082090485,-0.00011972631813934892,-0.0006189300769914736
1734989267286894,-5.209752072108632,-0.8883988419651383,-0.19272413588233206,-0.0034648253545242207,0.0030605960197625836,0.0016046908465924075,1.3920445220383353,-1.394111793395812,0.14989059824860493,0.0007273544937824109,0.0020362848889602663,8.550773838590618e-05
1734989267386895,-5.209972279769843,-0.8881911222700744,-0.19260987727336404,-0.0012176160985036687,-0.00029772313302555987,0.000560000397662797,1.3920064001066288,-1.3941342789772642,0.14996070449091187,0.00291272917282577,0.002123790436862191,-0.0007960651035329949
1734989267486896,-5.210124819738893,-0.8880003382773748,-0.19250052754378078,-0.0017523989873132477,0.0036684734935696836,0.002824034265976333,1.392066350910219,-1.3941184998794298,0.14989109649009832,0.0005485060748106411,-0.0007605462620059501,0.0009669135292354852
1734989267586896,-5.210382211357103,-0.8877933456351009,-0.19237389256056053,-0.0029614169695758976,0.00035147755624898974,0.0016404343855705096,1.3920317006332292,-1.3941257244510024,0.14992407293485654,-0.002959545389395559,0.004182390382233672,0.001727093447525384
1734989267686897,-5.210647413754443,-0.8876015143187368,-0.19226515354753065,-0.0007441805543167873,-0.0003048006555514227,0.0007784031967725072,1.3918450681264785,-1.3941140646451635,0.15013270188536368,0.004430129254618866,0.0036083901035108973,-0.00047941155486205713
1734989267786898,-5.210518748295247,-0.8872863891851354,-0.19209187868934516,0.006936122570646851,0.006958124342019086,0.003539605636971268,1.3918053213211112,-1.3940683953797486,0.15018987484314386,-0.0014945973517892456,-0.0022773905684747827,-0.0020741907984184525
1734989267886899,-5.208790048049132,-0.8867075753686904,-0.19154259696439707,0.02666401766734131,0.008558371150913393,0.006392594947404237,1.3924703969461618,-1.3940069829595947,0.14961834919255654,-0.001871158889509228,-0.0031246116685357678,-0.00026656818069180073
1734989267986900,-5.204835157835981,-0.8858614046076112,-0.19107539455586625,0.05257675577949625,0.008812120576242208,0.002282707404329073,1.3922168833861912,-1.394024585861896,0.14985416555292916,0.0008968549986443403,0.0017524705704225724,0.0009772219577624437
1734989268086900,-5.198216698882758,-0.8847478054429552,-0.19077702720150863,0.08178484384136847,0.014159507813439337,0.004380138696859143,1.390655735558006,-1.3940762057552976,0.15130858156280538,0.0035055999245784688,-0.0012401876364706303,0.0013532478541425244
1734989268186902,-5.188222626992269,-0.8831998470778797,-0.19024092216336602,0.11395123205316636,0.019966035791370393,0.007647736745039584,1.3902883882729098,-1.3940089028006992,0.15159324610143357,0.0006118419012729668,-0.0051547613353782945,0.0005357542249082779
1734989268286903,-5.176178545479159,-0.8813309597305705,-0.18952775043300646,0.12126173208531622,0.018823321644711098,0.006984793011546334,1.3928668093551644,-1.393963984846442,0.14898061114510125,0.0037714988967478907,-0.0001864874138475028,-0.007118323293533518
1734989268386904,-5.16421485168731,-0.8791762544082635,-0.18885876219950953,0.12124514735324439,0.023806533887974664,0.004522241464104186,1.3935269503930645,-1.3940122273942626,0.14834330839307117,-0.0036753207132843094,0.0007880166397670825,0.004732638476571119
1734989268536905,-5.142428884061274,-0.8756617778109105,-0.18825093755362948,0.17625607966899803,0.023900353220770068,0.0037289551862172143,1.387429856051213,-1.3939272446660769,0.15431436494514295,-0.004422884882447602,0.0012720908869164765,0.006529292055558352
1734989268586905,-5.133014592671321,-0.8743073644041461,-0.18804825281610893,0.20295453539062788,0.028771286101061735,0.0030087721417886067,1.3853832267310977,-1.3938489121067252,0.15628962529357104,-0.005748978855068244,0.0015009099325185185,0.009428072974726373
1734989268686906,-5.1081973271213,-0.8707831209508129,-0.18797888633469634,0.30321982958969795,0.043486174328681675,7.250995817682551e-05,1.3731232949359096,-1.3936703372122774,0.16818335024907796,-0.000778713184404448,0.004606742927650638,0.03600970893618267
1734989268786907,-5.07074307758027,-0.8650977925514418,-0.18744391983543646,0.4520852755437824,0.06873623726116473,0.012740328959069987,1.352540488926435,-1.3940157671125009,0.18893818168806883,0.000267776976855044,0.010265344427252167,0.02641416474351958
1734989268886908,-5.015981592963901,-0.8575550931703841,-0.18582908143186994,0.6510612375959922,0.08835831217161345,0.019937647803449005,1.3399545579625183,-1.394705087354494,0.2015020278767944,0.005424292998597551,0.004827290845409062,0.019826672930633997
1734989268986909,-4.93931507912137,-0.8472698846172665,-0.183523057288404,0.8826207037584306,0.11724952489873817,0.02576453690012072,1.3308949498296603,-1.3945572008629463,0.21036514955240931,-0.0056318722256766054,0.0015985664924906794,0.010111150445869873
1734989269086910,-4.839244370735381,-0.8339668570851488,-0.1807353815279562,1.1184330812314414,0.1429437839980247,0.029667425223224617,1.326801842756206,-1.3949461866650266,0.2145809446120223,0.0031924995144916543,0.015015696077237831,-0.0005730954315876518
1734989269186911,-4.7166578198497495,-0.8191356884029833,-0.17770630433483545,1.3286358600432322,0.15740422986525543,0.030854394820615166,1.3296252635253918,-1.3975231564779764,0.21099448027370835,0.012911951859452495,0.028079965671556347,-0.011110573536958355
1734989269286912,-4.573428017951176,-0.8022760752806188,-0.17473607854152962,1.535909238402078,0.17452250464447247,0.031462343191612396,1.3294811606188544,-1.400019209195256,0.21062030314827476,0.006231938105693775,0.019737154031151803,-7.777711972517155e-05
1734989269386913,-4.409195879195085,-0.7836363388109695,-0.17074271489523757,1.747098800674165,0.20247303741668785,0.04403990763212748,1.3262194098850748,-1.401516628991281,0.21279785896174666,0.004845666347244948,0.014943529911522582,-0.0015267430338518483
1734989269486914,-4.224094353977942,-0.7606802776255288,-0.1660343375060933,1.956352136589667,0.24985116212951877,0.048512810289877806,1.3232864138448106,-1.403704482016356,0.21612895508744043,-0.008260456430074798,0.02678164110030802,-0.002255732929076294
1734989269586914,-4.017868419573715,-0.7341188535110955,-0.16067166099248675,2.170442475052955,0.2780848386871447,0.05533763531373094,1.3219655543674866,-1.40711362545046,0.21853597920426052,-0.013287177943168731,0.03532575708801717,-0.012842565158206972
1734989269686915,-3.7905156255310715,-0.705516652561041,-0.15506091868374783,2.3706244578750133,0.29705279244328303,0.057186987938589944,1.323897883540701,-1.410525510317558,0.21792482809488384,-0.015596040099140944,0.02452385592609503,-0.00446177981924755
1734989269786916,-3.5433553513778038,-0.676462427322159,-0.14929533797230987,2.575805994243575,0.2829355529895515,0.06164911604219856,1.321559791753653,-1.4136229601683632,0.220974501838084,0.00808821755094823,0.03625447737329356,-0.0012736472524967
1734989269886917,-3.2760310546672557,-0.6471102626815911,-0.14297837350242146,2.769333065433051,0.30846282979366674,0.06694364776641555,1.317675478621535,-1.4166264922661567,0.22449219522837696,-0.006010278944711491,0.029262925805082333,0.005518842769877562
1734989269986918,-2.9886064078894115,-0.6149229536858594,-0.13681597469835433,2.9829374868171454,0.32788372974095015,0.05910089785450826,1.3127663010975708,-1.419026166015848,0.2298901150260428,-0.0003792711190930002,0.025579605771878653,-0.002328449741956113
1734989270086920,-2.6796638667196304,-0.580448275253139,-0.13076602761610487,3.1976981377137363,0.36557776494794153,0.05956811217902291,1.3157696433344774,-1.4221326653869732,0.22737630799833283,-0.011480882053018273,0.02977173502472443,-0.02010287553320375
1734989270186921,-2.349841727717941,-0.5433579285733833,-0.12520303575530464,3.404819939207195,0.3726269886390827,0.05460487024539985,1.3239890131589367,-1.4249059343741124,0.2200657541534455,0.002053067974480251,0.025305997058590355,-0.020420701662592432
1734989270286922,-1.9990222359713146,-0.5065688684914705,-0.12014446387969627,3.6117911935634663,0.3656382222882533,0.047446165590495,1.3358981667779457,-1.427630335096691,0.20778164151983908,0.015287366597816397,0.019132234622795806,-0.029383680193811868
1734989270386922,-1.6282956768748615,-0.46928228824372836,-0.11495797800193217,3.7979781983575043,0.3770788394969651,0.052802940547376345,1.3512802022070292,-1.430651105552976,0.19185630847249546,0.0054169241428448835,0.02463854584803537,-0.021611895094924026
1734989270536924,-1.038285794036029,-0.4102018088127953,-0.10610205551322668,4.073022127812538,0.42537164339809735,0.06898605067451556,1.359709058255821,-1.4342380013709481,0.1830648859795014,-0.003031437646822435,0.014884892214252264,-0.006830761119139257
1734989270586924,-0.8317265733518824,-0.38823071511770596,-0.10274838539652793,4.18834473729778,0.4540508618568645,0.06975895913264918,1.364749448372166,-1.4350562524934563,0.17860682674033523,-0.007525305458029509,0.016715995542101823,-0.022715863115812612
1734989270736926,-0.18314426636265918,-0.3131845073931179,-0.09184398127887167,4.452316559799148,0.5041506955058922,0.06244771609799499,1.3858442377909588,-1.4372584344967416,0.1616592589775086,-0.010130022869316786,0.0018343338186128594,-0.0009302870578671548
1734989270786926,0.04148324132013986,-0.2875659759036796,-0.08909195641033679,4.541597161249792,0.5156786843977497,0.05031266594779722,1.3849124166084814,-1.4370581798810016,0.1636500711429103,-0.02871424239630621,-0.004935620678839808,0.006119914528475684
1734989270886927,0.5049984190506107,-0.23743541865233808,-0.08497804508497496,4.732891429299595,0.4725198707798241,0.032250274319984625,1.3788051875485792,-1.4358949455533139,0.16996944193610383,0.033043678871905284,-0.003146149621288768,0.012376427546469762
1734989270986928,0.9874821898209436,-0.1903561240914428,-0.08178819291777012,4.903605183722938,0.489334371645595,0.043779349973851085,1.3731488844603472,-1.4351151039181007,0.17233606984361863,0.008463113979686954,-0.005381729115796157,0.0093776074085631
1734989271086928,1.4848056750712553,-0.13327829679829936,-0.07539773464002995,5.040523798059989,0.672048010159482,0.07442849081262028,1.3726730170391674,-1.4342480469612537,0.17594036078337175,-0.088763595363446,-0.003359292251941281,-0.00741964991291713
1734989271236930,2.2553992342639417,-0.032176262704547015,-0.06477283149300919,5.248556728448611,0.6497579001975218,0.06831278018480569,1.372376962636548,-1.4335869056972705,0.18465236658087442,-0.022724059673452045,-0.007833291194940206,0.00030892161927392503
1734989271286930,2.519582363916657,0.0002877692084599093,-0.061360415484841196,5.322624045475074,0.6384213582465776,0.06735695645408099,1.3761760395245646,-1.4330918042560736,0.18225474182104123,-0.01838676729419109,-0.017328784098056573,-0.011522295754315714
1734989271386932,3.0583430853014013,0.06076889328346598,-0.055743539619748275,5.439378701894594,0.5798804685381379,0.04959831638335691,1.3918232372917825,-1.431575256592287,0.16625883720255658,0.02784654203978931,-0.020063160255695,-0.018329136480812948
1734989271486932,3.605793583875433,0.12145699380853095,-0.05070998468909505,5.506529537593043,0.6577195545538207,0.05558519899358893,1.4112106382743907,-1.4297747108621066,0.146370686226924,-0.030054602588539984,-0.01409695968623002,-0.03739205672539762
1734989271586933,4.160816478536195,0.189548669840977,-0.04479399206167775,5.579129711924995,0.7231509591506041,0.05106221098670289,1.433973329097268,-1.4295277451376103,0.12585213382971963,-0.019621522125955457,-0.0006745483773887105,-0.04312934177250493
1734989271736935,5.00326568290878,0.3000971875194933,-0.03336087703680726,5.633057655648364,0.7540793551208714,0.0876687176116601,1.4496536671934461,-1.4286630004137586,0.11659537033467464,-0.05217619509159345,-0.01861668474511866,0.02230928764632191
1734989271786935,5.2856474492724335,0.3358971645359497,-0.029154130363133766,5.6552707640342845,0.7018581397150254,0.08203770084239531,1.4397164602992745,-1.4274541380418666,0.1276633398682715,-0.007346596952592202,-0.019606311648892084,0.036976416299654286
1734989271886936,5.853519257082484,0.40788542253891324,-0.019682141841641895,5.713788969007606,0.7261770874595189,0.09476070532021867,1.4053173857047063,-1.4250528660639121,0.16381876976818888,-0.028515603600324707,-0.01235295852976229,0.05297459109111581
1734989271986937,6.428148697928402,0.48056687027948297,-0.010506989790762325,5.78895104918083,0.7267251267302864,0.09085236813322621,1.3635878656943798,-1.4231532488701386,0.206671613408947,-0.014001547829111352,-0.00490347904513925,0.048516439823623816
1734989272086938,7.012886100957358,0.5510330832175308,-0.002133229574374118,5.915743637567697,0.7077743696113962,0.07777018844805206,1.3310814034171174,-1.4210466818167231,0.23780579345542668,0.010261196533532514,-0.009325416281180363,0.025579633921588147
1734989272236940,7.915725177760438,0.6643588064761661,0.013883366316196202,6.118389483537575,0.8187688424777332,0.14203250806586723,1.3256911061184784,-1.4190802115359558,0.24467361736836019,-0.032570131811273884,-0.010482108071588165,-0.011915584090472922
1734989272286940,8.222907080335498,0.7057288416251541,0.021405681537786686,6.173382155875454,0.8337993468409512,0.15585560109315763,1.3316515426904125,-1.4187983126723696,0.24040513224428572,-0.011746185722241197,-0.014679421440178204,-0.024503392429501194
1734989272386942,8.845097042136134,0.7905075000424486,0.03858858282462972,6.268736468608904,0.8518020911839715,0.1813857109245851,1.3439544327423667,-1.418186500370239,0.2311980102044114,-0.025532964435632886,-0.0110854025806145,-0.021627203533343086
1734989272486943,9.475878000828066,0.8754336988414665,0.05617844335539807,6.342713493540349,0.8340512095248589,0.1726681721754207,1.345234980313177,-1.4164893021739005,0.2320927294261553,-0.007039264732162745,-0.015254151634462119,0.031609928533375076
1734989272586943,10.113162583002755,0.9595685918306449,0.07244954850835982,6.414641385284699,0.8394654620312412,0.162823921568352,1.324827210605171,-1.4135872813765784,0.2532504648622594,0.0035938834936572682,-0.016114220397799098,0.04717212316308013
1734989272736945,11.085943162188093,1.087340945920297,0.09969323288877527,6.571375034379358,0.8649873590649497,0.19598723748412547,1.2851891996220395,-1.4102477878836486,0.29185618374813577,0.016603211770650873,-0.015562709885308583,0.024902036242536695
1734989272786945,11.416484702392568,1.1307476390700053,0.10944232500513061,6.6463773979751455,0.8715290960949615,0.18770355970250682,1.2807922390548212,-1.409524883913038,0.2956608619439792,0.018276592836620927,-0.005218626303423815,-0.001837282731307584
1734989272886946,12.08686352884833,1.2208850371239395,0.128082666128098,6.777411552543507,0.9176927881352005,0.1765792082753064,1.289127720189711,-1.4083746270979671,0.28735987749554387,-0.01729642110471095,-0.01687469621388454,-0.043688635623630664
1734989272986947,12.774537047685769,1.3131836922279192,0.1439904859201927,6.9596730254430055,0.985751861605962,0.12727367630305284,1.3420815079301334,-1.4093767057743936,0.23333730431498426,-0.03003451865003116,-0.011412388426239196,-0.13224458245583537
1734989273086948,13.469863581861317,1.4164841959177796,0.1598277738817389,6.9190328605233855,1.042763194967689,0.20835075589707167,1.4086463847430215,-1.4090563356022807,0.1725431298191393,-0.04881886811213124,-0.03014706830337631,-0.039584576073731656
1734989273236949,14.49859517790788,1.5682093721211432,0.1985761182057585,6.8536692194988555,0.997333373458809,0.27017285514996026,1.3680986846607777,-1.4031558222677365,0.21504329614458945,-0.007608878813232694,-0.033201074745449886,0.10782591881914942
1734989273286950,14.84218627781767,1.6176603151953282,0.21132449180426605,6.887103567127854,0.9815545321878717,0.228080226882121,1.3385810818765447,-1.400336171181104,0.24359945681175116,0.02332538039305495,-0.03415567519894357,0.1132232757477332
1734989273386951,15.532700979489967,1.717692800061547,0.22700193184437528,6.964166062503271,1.0381001735602582,0.11506428809595168,1.270554248080655,-1.393524466480391,0.3095983172883062,0.003404905572020754,-0.026645181775778615,0.10208938541365645
1734989273486951,16.239541182615845,1.8265524725074296,0.2459575290673766,7.178106353385254,1.130424882924963,0.27035545797808264,1.2616655212725085,-1.3903237192733264,0.31936469481207597,-0.01762208739204451,-0.028582664724927827,-0.05523683669892405
1734989273586952,16.964178340303956,1.942439596099722,0.27820068103540285,7.288698916578235,1.1702193283705253,0.34503316683204266,1.3186415953270159,-1.3909680584215858,0.26575916593148496,-0.010327244210534383,-0.014536853656364227,-0.12294717332784852
1734989273736954,18.05556560886295,2.116243032495624,0.3247945118201936,7.237723645305439,1.1416356561761338,0.2438656494826614,1.3939066410727525,-1.3907757043795712,0.19169873669967885,0.015968352501298702,-0.024089734680952685,-0.02013119665061025
1734989273786954,18.416816698320137,2.1735765002484375,0.33554251369351556,7.22552135876406,1.1456467934769288,0.1862132107360183,1.3949098213811846,-1.3895796864092165,0.19040957831216546,0.0018020282197915537,-0.01439802135228153,0.011618719615930856
1734989273886955,19.140600682710932,2.286273931905229,0.3517233866106829,7.2581109174391,1.1339270967302226,0.1441236408031646,1.3816436015016917,-1.386972630341757,0.20073322902806395,0.016723894602457615,-0.019717756248180583,0.029369802411393697
1734989273986956,19.868746058273853,2.4014201020571466,0.3671204579795739,7.309709849067072,1.1647208409814889,0.1676027191752879,1.3741482471167772,-1.383949146131989,0.20616158233690698,0.014693389461550703,-0.02615216761153023,0.012886508585950415
1734989274086958,20.60222400548665,2.5216970374015464,0.3860938750326141,7.366591356478085,1.2304861434754446,0.21092458528485802,1.379038207613102,-1.3811247086238847,0.20070079247402264,-0.005242139012991418,-0.029536021342598143,-0.00847719569867287
1734989274186958,21.341582432884806,2.6453762992221694,0.4074716528662954,7.433744251367255,1.253298299673479,0.19917623924310468,1.3874437101916457,-1.3787359376419943,0.1917413160885009,0.005128335041691322,-0.029583578144860265,-0.021416830122247085
1734989274286960,22.08857266981879,2.771354837604587,0.42654119745203356,7.492941927543471,1.2762828643085395,0.1824428609603827,1.3995403734482994,-1.376462128024658,0.17817486357529846,0.017327178155792294,-0.02500484983536049,-0.0011033988507769743
1734989274386961,22.83935464869782,2.9028490583912876,0.4447146945118573,7.53054491317782,1.335242539993419,0.18857808394501102,1.4018074982331803,-1.3737944189676994,0.17638274088724323,-0.007413508753166277,-0.022331580622882864,0.0036302897014978265
1734989274486961,23.59502525471713,3.0384394539858173,0.46387034097752045,7.584585088065914,1.3722408361219913,0.19727618138298128,1.4019649604388638,-1.3710915308307277,0.17727783981665232,-0.000881280988977039,-0.03311581978850449,-0.001246113815970058
1734989274586962,24.356157069117707,3.1761567566660225,0.48181713242568974,7.636398881346323,1.3831012256609665,0.17186157907056762,1.402281603577903,-1.3679838891809748,0.17725558051932974,0.00245536326820741,-0.029071382847584412,0.016000958686422154
1734989274686963,25.122083516567407,3.315609232101483,0.4997938933458961,7.674236104727385,1.3954601542249847,0.19808102557650828,1.3990084161275105,-1.3650043759616686,0.1802257890032081,0.020379169169274777,-0.02760408740615015,0.011126696765538941
1734989274786964,25.889988259495414,3.4566338130936627,0.5230742155721678,7.705119365085885,1.432304422749624,0.23857626195213397,1.385134887723281,-1.362596427033612,0.19298060440125575,-0.002646781405546951,-0.012563157861235564,0.033050570433396445
1734989274886965,26.663759976241874,3.601385642312612,0.5463933733859005,7.788964345885082,1.4414163513388598,0.21618473231379864,1.3707302864928614,-1.360588016853936,0.20772181705558204,0.010940279316814128,-0.0037724355887489213,0.014647460095699217
1734989274986966,27.448139537342577,3.7458563032726753,0.5667014677882618,7.898341481479333,1.458686162375786,0.19694422588017915,1.3703539601564227,-1.3602024759361004,0.20707426964856218,-0.007102717695085129,-0.0004968949950963756,-0.015022238513418646
1734989275086966,28.244049461922756,3.8908515534413235,0.5901258667236104,8.015585003028619,1.4336287800310517,0.260588331917934,1.391745683193894,-1.3616437934140726,0.18524407764699335,0.0243498356910495,0.008833126169456192,-0.06201758574318083
1734989275236968,29.453833549748044,4.106288331489486,0.624618195663768,8.110851457946914,1.4305626830188864,0.16713924301382616,1.4377371844690117,-1.3651742294995974,0.13751427727722673,0.021784038700593814,0.015109493453276144,-0.05601826682770874
1734989275286969,29.859622182114606,4.178451866664183,0.6318908900308136,8.126338974101838,1.4618719832342293,0.12740337282593406,1.449600647468678,-1.366115365584107,0.12562080921514238,-0.0017182580310253358,0.0066931388102316955,-0.04965151878077166
1734989275386970,30.674624074151048,4.322816070269199,0.643126678036771,8.173858677783011,1.4518396973952508,0.1021758723872066,1.4666399851229321,-1.3676765839173042,0.10812713601871336,0.0013905854764576944,0.005528693931301617,-0.03295173226414014
1734989275486970,31.494848264086905,4.468131060689525,0.6528628184316543,8.23172631255298,1.4449579858710064,0.08745076412232554,1.4788801041555835,-1.3687558742755137,0.09572467323391053,0.009405399805727828,0.008151408189936015,-0.019247867325202048
1734989275586971,32.31910839385582,4.614722287645136,0.660932376585135,8.256618799914817,1.4763771376758523,0.06852585705741575,1.4816550191024047,-1.3696006890786285,0.09361928893681024,-0.01809675591383876,0.011340485316780195,-0.0007770373194085243
1734989275686972,33.147340950908614,4.765330309192218,0.6687063592993163,8.317401637784668,1.5323916669745978,0.07036929757464437,1.4757613680153672,-1.3702477501520094,0.10250098313591194,-0.04831731205535132,0.00983639873600022,-0.0018475321734901602
1734989275786973,33.98302193454818,4.918600170042967,0.6760165517948169,8.39803839233644,1.52188283526906,0.06846214558404416,1.475674518518346,-1.3706526121607367,0.10586274580470102,-0.017347502907966807,0.003458546264057986,-0.006524370087105724
1734989275886974,34.82637964089825,5.068855719898115,0.6836858883478585,8.46675296116257,1.4918561452857806,0.08199929714464757,1.4811930923653398,-1.3698896102642388,0.0998353756519743,0.018614146411235682,-0.020214863011357134,-0.02084838568383762
1734989275986975,35.67495528278164,5.2191061341729545,0.6923591734893918,8.498577626443423,1.5048863275152347,0.08208449958767908,1.4940730330895728,-1.3679288343560958,0.08506699489212098,0.03387586408592208,-0.021500696980625338,-0.032343513676372795
1734989276086976,36.52348787417539,5.371752684339911,0.6993855597784588,8.474137256145642,1.5543596261281667,0.05620129175164803,1.5128101461465446,-1.3660230006561396,0.06429096021629162,0.019080284439630307,-0.0250046845077852,-0.04167261862197163
1734989276186977,37.368088895434504,5.530749388282796,0.7041241357476627,8.417524438257475,1.6043670795031189,0.042807605742298055,1.5326161172082762,-1.3631467916760802,0.045831806883387595,-0.014814986811270013,-0.02987273905965929,-0.0356192691736723
1734989276286978,38.2071076804583,5.691843584233108,0.7077551352706449,8.369641791218976,1.6097031092759304,0.025256489576498523,1.545787649589457,-1.3599100550294918,0.03342604998439812,-0.0016204655738618825,-0.036567533943593904,-0.020476206923069767
1734989276386979,39.04113763062946,5.852056222618636,0.7109955550309879,8.307676541670606,1.5995732874701056,0.03349326089451506,1.5456525400041208,-1.3559423418148526,0.03242349991378037,0.01854651131893418,-0.038830119111253746,0.024042137842169384
1734989276486980,39.86946173543135,6.013531883974824,0.7146552940907169,8.277052640615752,1.6259436887623844,0.04066625396699024,1.5306557513053323,-1.3523501550686468,0.04544446071528461,0.011846079276333094,-0.027935130970675178,0.03188436340847222
1734989276586980,40.69631128228416,6.1782149259829255,0.7188520795603444,8.266995725364568,1.6476673852485781,0.03609766645405113,1.5192398777905083,-1.34926851123255,0.0552725009355328,0.02171211753813429,-0.021886806519551223,0.025570309664692623
1734989276686981,41.523426460329155,6.34650607205279,0.7230041327011149,8.277252936080025,1.7215786402556748,0.04910473287914518,1.5169892785247756,-1.346123098355001,0.056478273810747034,-0.01191684564877774,-0.036976881593004024,-0.013014097038560556
1734989276786982,42.3504320057536,6.5206279166704455,0.7289039779370282,8.263547888891813,1.7411571143588551,0.06587005788177899,1.527527164850718,-1.3426223541303577,0.04733511548962516,0.007760507681435346,-0.034887289516858586,-0.02554297233328424
1734989276886983,43.17581004524032,6.694211264590518,0.734395667270547,8.247728525992912,1.731907838733123,0.03929066057359938,1.5384650731182954,-1.3390617621810865,0.03498055894891612,0.02952647916787717,-0.04310881711901287,-0.024243341847559947
1734989276986984,43.99947615669708,6.868128660270676,0.7358956375987106,8.220321509694433,1.753460083279546,-0.003429117845328481,1.5494548739149763,-1.3354347778167024,0.022052637749289727,0.026427057581779306,-0.03648170776610448,-0.01734719888893511
1734989277086986,44.8195702371173,7.0464159032379134,0.7356689055837128,8.183517663666363,1.8004085687791462,0.004892448409571059,1.5583971413598199,-1.3325655253484048,0.012386781917298303,0.003991931498904526,-0.030203674724161498,-0.016212861356578026
1734989277236987,46.04182254539689,7.317354885140152,0.7358457684358062,8.115477593639232,1.8217431662668255,-0.013261582773917698,1.5607638134456587,-1.328150313780941,0.008552409654480533,0.00949220036566172,-0.026777793496182454,0.013626397548911482
1734989277286988,46.447143969163434,7.4091020462603945,0.7348548134566201,8.099739323519785,1.8431716636531623,-0.02205795472505882,1.5588749561071107,-1.3266448975825809,0.010765793357062634,-0.006678693606532927,-0.028837095866512858,0.005906186353320098
1734989277386989,47.255539874467324,7.59558496807829,0.7329909521407176,8.072218766857924,1.8876389797941426,-0.016902526098435924,1.556880575864652,-1.3235308712076674,0.014146527410347364,-0.01708524609060472,-0.036376260534327166,0.0011947783083100982
1734989277486990,48.062162867825236,7.785194712431774,0.7323961489792052,8.052634507835485,1.8963782330997145,-0.000792466394683587,1.5601628354023487,-1.320521704683684,0.012585763638268974,-0.014992469261770941,-0.025983702364469466,-0.010035816079272617
1734989277586990,48.86513744436547,7.977250868391606,0.7323009025546218,8.011283545282444,1.9316483196971796,-0.006050825988291392,1.562486949250748,-1.3175120009436203,0.012994525487441287,-0.02613166149745835,-0.02476976393420595,0.002656885739246807
1734989277686991,49.666630315276784,8.167670852497794,0.7304126621447187,8.059527078168559,1.8376981651140198,-0.058506457557228914,1.5655954357726387,-1.315154582975507,0.00942403671203467,0.0827071781371206,-0.014335266992404148,-0.03998186386690675
1734989277786992,50.4706609136554,8.353194930009312,0.7243807531067822,8.02570410815376,1.876297095689287,-0.06028628829290869,1.5803559848068212,-1.313519477083247,-0.009795099515412704,0.022587808726547757,-0.02265471926858358,-0.04657130312712516
1734989277886993,51.26992093542098,8.543626107122625,0.7205825956856347,7.952862894003253,1.9346786849248618,-0.0285132368144996,1.592681673927563,-1.3117332016367584,-0.022257573425664978,-0.010265253396516457,-0.014504390332369202,-0.0187817405599293
1734989277986994,52.06109900929099,8.739641653611553,0.7190388577848081,7.870420156201172,1.9274818169828098,-0.02835465139058169,1.5912527956115938,-1.3102742528500122,-0.0186603718790898,-0.006060659347284915,-0.02131881870060381,0.03737727832818448
1734989278086995,52.84418078316425,8.931334623797696,0.7148683546770586,7.814682346052014,1.8924174323806202,-0.035989324778496284,1.567319604706118,-1.3078721276921765,0.005213308279892364,0.023805181091767505,-0.020645161108830294,0.07350646796906149
1734989278186996,53.62547163543636,9.118583662894844,0.7127113227762062,7.819661590062484,1.8663883343044516,-0.011256330433009986,1.5428286342767434,-1.3059485782181723,0.02563523673113251,0.03569569022880334,-0.011854488260392449,0.03853541014043343
1734989278286996,54.40916684433877,9.3071136263633,0.713079155057295,7.851490086753235,1.9119689419240746,0.002386541088894592,1.5364908225181668,-1.3047692199498004,0.028558806466781113,-0.0012437949351223158,-0.006305489340795924,-0.021071901686234497
1734989278386998,55.19452940837339,9.502426953641598,0.7141722121423395,7.852003931516304,1.964612385494016,0.010462643267315863,1.5501279453994732,-1.3042293787382944,0.015597874700447678,-0.0031205204059137526,-0.004719704376713057,-0.052679995677704615
1734989278486999,55.9790200702557,9.698907151525233,0.714951208626381,7.840681931774869,1.9372533307150015,-0.0013114886343466058,1.5712267235006874,-1.3034780418451017,-0.004735691423314003,0.020125634549431594,-0.011323607972088794,-0.057070257114460315
1734989278587000,56.763695330596825,9.889842808234736,0.7107982265358717,7.878152660420588,1.8422528135928506,-0.09685264593549425,1.594968670376919,-1.3022894180002136,-0.03140751438497484,0.07482976028591135,-0.008863312049264,-0.09083399253252936
1734989278687000,57.544738452748675,10.0759298855205,0.7011746587496662,7.7563380189973525,1.8879721587591944,-0.09932157466988162,1.6133801429108978,-1.3014893925436761,-0.054960441294323197,0.00882183748783973,-0.003344480669253575,-0.0288211510127279
1734989278787001,58.31629027157687,10.26784045564524,0.692878955366028,7.686277778465272,1.91418805230928,-0.07491915374264556,1.61257086442218,-1.3013436916634662,-0.053562542558814374,0.0049682159692133925,0.0017395995604992172,0.019658083018792953
1734989278887002,59.08345148550278,10.460001476222438,0.6846145383421073,7.649511459366653,1.929210485320861,-0.11206498004820745,1.6035665374768353,-1.30162308299876,-0.044873389931080074,0.006863699283496239,-0.004378497085520179,0.04334438447354737
1734989278987003,59.848348164754015,10.64913816470251,0.673321433829041,7.6559655195982,1.8869348997415065,-0.0896004361528862,1.5912474309875777,-1.3010261988054292,-0.034457041664261605,0.032056899590326184,-0.003302807817322421,0.013530131769804247
1734989279087004,60.614944211594775,10.839818710787176,0.6662394368187567,7.67131668593149,1.9136491522308787,-0.06116796459780666,1.5925244055058856,-1.3005625844142803,-0.03630562805284414,0.010777864534650806,0.00073451440986611,-0.02718611906213766
1734989279187004,61.38014588934008,11.031973545993273,0.6611424877769547,7.619930747518407,1.9337592162351371,-0.05859532805752047,1.5980687976097738,-1.300508001153093,-0.041391385614233334,-0.004832808911766911,0.0035933559642320765,-0.010165157049480435
1734989279287006,62.138957572686856,11.226687547322015,0.6552309180212462,7.567568724109389,1.9418141084239482,-0.06694145208964764,1.591683445626684,-1.3004178069742456,-0.03254510608169913,-0.03148985611068343,-0.0017234841406942338,0.027209370947862684
1734989279387007,62.895611019187434,11.42173072406923,0.6472327263810496,7.565928083557455,1.9525713889898801,-0.0863086331141243,1.5841098389363255,-1.3004230078108883,-0.022207121479639644,-0.03048049251669245,0.0019953220737547097,0.004600984253546339
1734989279487008,63.651635345321445,11.616313541783828,0.6392135354227562,7.554507875175131,1.9293105723911363,-0.06797808485027394,1.581187244492039,-1.300568497342926,-0.01584444935989934,-0.02363887487696024,0.0027527822639171534,0.009238082590898212
1734989279587009,64.40698381595475,11.808465450274229,0.634603715257162,7.5513222087823255,1.9102728098137998,-0.029514571891287835,1.5812037328528328,-1.301784645411965,-0.013249378653626217,-0.014236959108875194,0.018207724632984777,-0.004757765469510931
1734989279687009,65.16075098990969,11.996449974055682,0.631821757215398,7.517985154637432,1.8454165026742528,-0.032534626228992114,1.5806585471152916,-1.3042200566939426,-0.011639205254822274,-0.0001611887734591435,0.027539510391820805,0.01670892560775396
1734989279787010,65.91172482608617,12.17792840247701,0.628173401831574,7.505318417212115,1.7928292238239665,-0.04051321272499864,1.5726110882819018,-1.307064178297298,-0.004966437998629684,0.020491740186704167,0.026205921652396564,0.011066327158717477
1734989279887011,66.66229474972526,12.356792369291385,0.6242793650375785,7.506756597187257,1.7842787020469293,-0.0338744399541222,1.568243956362942,-1.3099720012144953,-0.0013281886931149523,0.015549439848589969,0.020741141352599194,0.003610715085174624
1734989279987012,67.41324097312673,12.535458330534112,0.6204391790850712,7.513429565288722,1.774283875613272,-0.029798899221975303,1.5727594435086303,-1.3128833313260384,-0.004707590757657747,0.009087859068196986,0.03250796035541458,-0.01090307138892221
1734989280087014,68.16407375239356,12.710885191300079,0.6169722596151184,7.503851742357132,1.7404032113098828,-0.04004142798075374,1.583802702709035,-1.3159046146533229,-0.015306852156899642,0.003321506538423186,0.0319350201976806,-0.03659609591631324
1734989280187014,68.91284010669042,12.880852203304906,0.6116669537496788,7.4750920258893725,1.6692954697485312,-0.05737861484532097,1.596334573365184,-1.318954216025525,-0.028527340760475587,0.02873378620221028,0.03717975079685083,-0.01996484430798741
1734989280287016,69.65746239024912,13.047173958245695,0.6041211974893579,7.413214904486831,1.6527452951555859,-0.09051153134284623,1.608934517155913,-1.3222918294995845,-0.04175803507217168,-0.0007353871757160793,0.032193365963847545,-0.026219685654654754
1734989280387017,70.39698503081055,13.210208040205783,0.593421916798827,7.367240526110865,1.6315190352555746,-0.1205211036225493,1.6219974214730357,-1.3258857660835381,-0.055414674899873166,-0.0081194426579561,0.04031318091469702,-0.04517014496724386
1734989280487018,71.12980643459717,13.372758769465007,0.5814236140434522,7.293763176062559,1.5981826732189168,-0.12338710484217351,1.6345299759882108,-1.3297742025029793,-0.06552438966400251,-0.01751128581559818,0.04590131677628403,-0.023921268964085102
1734989280587019,71.85691872232314,13.52834080676936,0.5692999172886214,7.2522786037204305,1.5148329136582324,-0.12611085924947105,1.6429441813374088,-1.3337319005765316,-0.07397945102441737,0.02681275838726743,0.040051602464174524,-0.017259184651424352
1734989280687019,72.57909456707864,13.676716785913404,0.5558702958625025,7.187327030246892,1.4461887526128487,-0.1441500115924506,1.6503299751629463,-1.3377530226512955,-0.08274722154848019,0.01767096193836624,0.04998811452615467,-0.004153437576879162
